type,name,latitude_deg,longitude_deg,continent,iso_country,iso_region,iata_code
small_airport,Utirik Airport,11.222000122070312,169.8520050048828,OC,MH,MH-UTI,UTK
small_airport,Buckhorn Ranch Airport,38.851898193400004,-106.93281999999999,,US,US-CO,CSE
small_airport,LBJ Ranch Airport,30.251800537100006,-98.6224975586,,US,US-TX,JCY
small_airport,Metropolitan Airport,42.223300933800004,-72.31140136719998,,US,US-MA,PMX
seaplane_base,Loring Seaplane Base,55.601299285900005,-131.636993408,,US,US-AK,WLR
small_airport,Nunapitchuk Airport,60.9057998657,-162.438995361,,US,US-AK,NUP
small_airport,Icy Bay Airport,59.96900177,-141.662002563,,US,US-AK,ICY
small_airport,Kalakaket Creek AS Airport,64.4166256967,-156.820392609,,US,US-AK,KKK
small_airport,Dunsmuir Muni-Mott Airport,41.2631988525,-122.27200317399999,,US,US-CA,MHS
small_airport,Lime Village Airport,61.3591003418,-155.440002441,,US,US-AK,LVD
heliport,Five Finger CG Heliport,57.26990127559999,-133.63099670399998,,US,US-AK,FIV
small_airport,Hog River Airport,66.21610260000001,-155.6690063,,US,US-AK,HGZ
small_airport,Ed-Air Airport,38.851398468,-87.49970245360001,,US,US-IN,OTN
seaplane_base,False Island Seaplane Base,57.5321998596,-135.212997437,,US,US-AK,FAK
small_airport,Blakely Island Airport,48.578998565700005,-122.82599639899999,,US,US-WA,BYW
small_airport,Drift River Airport,60.5889015198,-152.162002563,,US,US-AK,DRF
small_airport,Rinkenberger Restricted Landing Area,41.2308998108,-89.61569976810001,,US,US-IL,BDF
small_airport,Roy Otten Memorial Airfield,38.427799224854,-92.875198364258,,US,US-MO,VRS
seaplane_base,Golden Horn Lodge Seaplane Base,59.7470016479,-158.875,,US,US-AK,GDH
small_airport,Atmautluak Airport,60.8666992188,-162.272994995,,US,US-AK,ATT
small_airport,Livengood Camp Airport,65.467,-148.6534,,US,US-AK,LIV
small_airport,Pedro Bay Airport,59.789600372299994,-154.12399292,,US,US-AK,PDB
small_airport,Ouzinkie Airport,57.922901153599994,-152.50100708,,US,US-AK,KOZ
seaplane_base,Hyder Seaplane Base,55.9033244038,-130.009975433,,US,US-AK,WHD
seaplane_base,Tokeen Seaplane Base,55.937099456800006,-133.32699585,,US,US-AK,TKI
medium_airport,Aleknagik / New Airport,59.2826004028,-158.617996216,,US,US-AK,WKK
seaplane_base,Ketchikan Harbor Seaplane Base,55.349899291999996,-131.677001953,,US,US-AK,WFB
small_airport,Southern Seaplane Airport,29.866100311300002,-90.02220153809999,,US,US-LA,BCS
heliport,Catalina Air-Sea Terminal Heliport,33.749198913600004,-118.275001526,,US,US-CA,SPQ
heliport,East 34th Street Heliport,40.74259948730469,-73.97209930419922,,US,US-NY,TSS
seaplane_base,New York Skyports Inc Seaplane Base,40.7340011597,-73.9729003906,,US,US-NY,QNY
small_airport,Earl Henry Airport,36.7958984375,-97.31700134280001,,US,US-OK,BWL
seaplane_base,Yes Bay Lodge Seaplane Base,55.916301727299995,-131.80099487299998,,US,US-AK,WYB
small_airport,Center Island Airport,48.4901008606,-122.83200073200001,,US,US-WA,CWS
small_airport,Tatitlek Airport,60.8689003,-146.6860046,,US,US-AK,TEK
small_airport,Pine Island Airport,36.2535018921,-75.7884979248,,US,US-NC,DUF
small_airport,Stuart Island Airpark,48.672901153564,-123.17600250244,,US,US-WA,SSW
small_airport,Fort Bragg Airport,39.4743003845,-123.79599762,,US,US-CA,FOB
heliport,Century City Heliport,34.060798645,-118.41799926799999,,US,US-CA,CCD
seaplane_base,Meyers Chuck Seaplane Base,55.7396011353,-132.255004883,,US,US-AK,WMK
small_airport,Waldronaire Airport,48.7117996216,-123.017997742,,US,US-WA,WDN
seaplane_base,North Whale Seaplane Base,56.116298675500005,-133.121994019,,US,US-AK,WWP
small_airport,Chuathbaluk Airport,61.57910156,-159.2160034,,US,US-AK,CHU
small_airport,Levelock Airport,59.1281013489,-156.85899353,,US,US-AK,KLL
seaplane_base,Saginaw Seaplane Base,56.8862991333,-134.158004761,,US,US-AK,SGW
small_airport,Tuntutuliak Airport,60.335300445600005,-162.667007446,,US,US-AK,WTL
small_airport,Chignik Lake Airport,56.25500106810001,-158.774993896,,US,US-AK,KCQ
small_airport,Atkamba Airport,-6.0655555555600005,141.095277778,OC,PG,PG-WPD,ABP
heliport,Andorra la Vella Heliport,42.5004997253,1.5171200037,EU,AD,AD-07,ALV
small_airport,Andakombe Airport,-7.13722222222,145.744722222,OC,PG,PG-EHG,ADC
small_airport,El Daein Airport,11.4023,26.1186,AF,SD,SD-DE,ADV
small_airport,Adareil Airport,10.0536111111,32.9594444444,AF,SS,SS-23,AEE
heliport,Algeciras Heliport,36.128880337300004,-5.44111847878,EU,ES,ES-CA,AEI
small_airport,Aseki Airport,-7.350804855519999,146.19386673,OC,PG,PG-MPL,AEK
small_airport,Orūzgān Airport,32.9029998779,66.630897522,AS,AF,AF-ORU,URZ
small_airport,Salerno Landing Zone Airport,33.363800048799995,69.9561004639,AS,AF,AF-PIA,OLR
seaplane_base,Kondavattavana Tank Seaplane Base,7.284,81.64399999999999,AS,LK,LK-5,AFK
small_airport,Afore Airstrip,-9.142222222220001,148.390833333,OC,PG,PG-NPP,AFR
small_airport,Afutara Aerodrome,-9.19138888889,160.948611111,OC,SB,SB-ML,AFT
small_airport,Ulawa Airport,-9.86054358262,161.979546547,OC,SB,SB-MK,RNA
small_airport,Uru Harbour Airport,-8.873330116271973,161.01100158691406,OC,SB,SB-ML,ATD
small_airport,Barakoma Airport,-7.912779808044434,156.70599365234375,OC,SB,SB-WE,VEV
small_airport,Geva Airport,-7.5758299827575675,156.5970001220703,OC,SB,SB-WE,GEF
small_airport,Angoram Airport,-4.05583333333,144.073888889,OC,PG,PG-ESW,AGG
small_airport,Auki Airport,-8.70256996155,160.682006836,OC,SB,SB-ML,AKS
small_airport,Bellona/Anua Airport,-11.302222222200001,159.798333333,OC,SB,SB-RB,BNY
small_airport,Choiseul Bay Airport,-6.711944,156.39611100000002,OC,SB,SB-CH,CHY
small_airport,Ballalae Airport,-6.9907449999999995,155.88665600000002,OC,SB,SB-WE,BAS
small_airport,Fera/Maringe Airport,-8.107500076293945,159.57699584960938,OC,SB,SB-IS,FRE
medium_airport,Honiara International Airport,-9.428000450134276,160.05499267578125,OC,SB,SB-CT,HIR
small_airport,Babanakira Airport,-9.7475004196167,159.83900451660156,OC,SB,SB-GU,MBU
small_airport,Avu Avu Airport,-9.86833333333,160.410555556,OC,SB,SB-GU,AVU
small_airport,Ngorangora Airport,-10.4497003555,161.897994995,OC,SB,SB-MK,IRA
small_airport,Santa Cruz/Graciosa Bay/Luova Airport,-10.72029972076416,165.7949981689453,OC,SB,SB-TE,SCZ
medium_airport,Munda Airport,-8.327969551086426,157.26300048828125,OC,SB,SB-WE,MUA
small_airport,Nusatupe Airport,-8.09778022766,156.863998413,OC,SB,SB-WE,GZO
small_airport,Mono Airport,-7.416940212249756,155.56500244140625,OC,SB,SB-WE,MNY
small_airport,Parasi Airport,-9.64167022705078,161.4250030517578,OC,SB,SB-ML,PRS
small_airport,Rennell/Tingoa Airport,-11.533900260925293,160.06300354003906,OC,SB,SB-RB,RNL
small_airport,Sege Airport,-8.578889846801758,157.87600708007812,OC,SB,SB-WE,EGM
small_airport,Santa Ana Airport,-10.847994,162.45410800000002,OC,SB,SB-MK,NNB
small_airport,Marau Airport,-9.86166954041,160.824996948,OC,SB,SB-GU,RUS
small_airport,Suavanao Airport,-7.585559844970702,158.7310028076172,OC,SB,SB-IS,VAO
small_airport,Yandina Airport,-9.092816000000001,159.21841,OC,SB,SB-CE,XYA
small_airport,Kagua Airport,-6.396388888890001,143.853611111,OC,PG,PG-SHM,AGK
small_airport,Kaghau Airport,-7.3305,157.585,OC,SB,SB-CH,KGE
small_airport,Kukudu Airport,-8.0262,156.94783,OC,SB,SB-WE,KUE
small_airport,Kwailabesi Airport,-8.360508,160.775127,OC,SB,SB-ML,KWS
small_airport,Wanigela Airport,-9.3375,149.155555556,OC,PG,PG-NPP,AGL
small_airport,Nana Airport,-10.6758,162.2049,OC,SB,SB-MK,NAZ
small_airport,Ringi Cove Airport,-8.12639045715332,157.14300537109375,OC,SB,SB-WE,RIN
small_airport,Ramata Airport,-8.168060302734375,157.64300537109375,OC,SB,SB-WE,RBV
heliport,Tulaghi Heliport,-9.107999999999999,160.149166667,OC,SB,SB-CE,TLG
small_airport,Argyle Downs Airport,-16.514,128.9245,OC,AU,AU-WA,AGY
medium_airport,Hongyuan Airport,32.53154,102.35224000000001,AS,CN,CN-51,AHJ
small_airport,Ambatolhy Airport,-20.015833333299998,45.535,AF,MG,MG-U,AHY
small_airport,Aiome Airport,-5.145699978000001,144.7307003,OC,PG,PG-MPM,AIE
small_airport,Aiambak Airport,-7.3427777777799985,141.2675,OC,PG,PG-WPD,AIH
small_airport,Ailinglaplap Airport,7.279421591760001,168.825699985,OC,MH,MH-ALL,AIP
small_airport,Chena Hot Springs Airport,65.0518035889,-146.04699707,,US,US-AK,CEX
small_airport,Solomon State Field,64.5605,-164.4457,,US,US-AK,SOL
small_airport,Herendeen Bay Airport,55.801399231000005,-160.899002075,,US,US-AK,HED
small_airport,Taylor Airport,65.6792984009,-164.798995972,,US,US-AK,TWE
seaplane_base,Tikchik Lodge Seaplane Base,59.9631996155,-158.477005005,,US,US-AK,KTH
seaplane_base,Naukati Bay Seaplane Base,55.84960175,-133.2279968,,US,US-AK,WNC
small_airport,Lonely Air Station,70.91069794,-153.2420044,,US,US-AK,LNI
small_airport,Candle 2 Airport,65.907699585,-161.92599487299998,,US,US-AK,CDL
seaplane_base,Amook Bay Seaplane Base,57.4715003967,-153.815002441,,US,US-AK,AOS
small_airport,Bartletts Airport,58.2162017822,-157.352005005,,US,US-AK,BSZ
small_airport,Boswell Bay Airport,60.4230995178,-146.145996094,,US,US-AK,BSW
small_airport,Zakuoma Airport,10.8902777778,19.8172222222,AF,TD,TD-SA,AKM
small_airport,Sharpe Field,32.4919013977,-85.77559661869999,,US,US-AL,TGE
seaplane_base,Alitak Seaplane Base,56.899501800500005,-154.248001099,,US,US-AK,ALZ
small_airport,Alto Molocue Airport,-15.6102777778,37.681388888899995,AF,MZ,MZ-Q,AME
small_airport,Ama Airport,-4.10111111111,141.67,OC,PG,PG-ESW,AMF
small_airport,Amanab Airport,-3.5860000000000003,141.21433333299998,OC,PG,PG-SAN,AMU
small_airport,Ambatomainty Airport,-17.686666666700003,45.623888888900005,AF,MG,MG-M,AMY
medium_airport,Nauru International Airport,-0.547458,166.919006,OC,NR,NR-14,INU
small_airport,Angus Downs Airport,-25.0325,132.2748,OC,AU,AU-NT,ANZ
small_airport,Andulo Airport,-11.4722995758,16.710899353,AF,AO,AO-BIE,ANL
small_airport,Cangamba Airport,-13.7105998993,19.861099243199998,AF,AO,AO-MOX,CNZ
small_airport,Dirico Airport,-17.981924057006836,20.7680606842041,AF,AO,AO-CCU,DRC
small_airport,Lumbala Airport,-12.6398773193,22.586820602399996,AF,AO,AO-MOX,GGC
small_airport,Jamba Airport,-14.698192596435547,16.070148468017578,AF,AO,AO-HUA,JMB
small_airport,Capanda Airport,-9.76937007904,15.4553194046,AF,AO,AO-MAL,KNP
small_airport,Ndalatandos Airport,-9.275188446044922,14.977242469787598,AF,AO,AO-CNO,NDF
small_airport,Annanberg Airport,-4.90416666667,144.635833333,OC,PG,PG-MPM,AOB
small_airport,Abou-Deïa Airport,11.4773,19.2874,AF,TD,TD-SA,AOD
small_airport,Asapa Airport,-8.979166666669999,148.103611111,OC,PG,PG-NPP,APP
small_airport,April River Airport,-4.67666666667,142.540138889,OC,PG,PG-ESW,APR
small_airport,Girdwood Airport,60.9660987854,-149.12600708,,US,US-AK,AQY
small_airport,Bragado Airport,-35.144,-60.4803,SA,AR,AR-B,QRF
small_airport,Caleta Olivia Airport,-46.43180084229999,-67.5186004639,SA,AR,AR-Z,CVI
small_airport,Charata Airport,-27.2164,-61.2103,SA,AR,AR-H,CNT
small_airport,General Villegas Airport,-35.0,-63.0,SA,AR,AR-B,VGS
small_airport,Los Menucos Airport,-40.81769943237305,-68.07469940185547,SA,AR,AR-R,LMD
small_airport,Valcheta Airport,-40.7000007629,-66.1500015259,SA,AR,AR-R,VCF
small_airport,Sunchales Aeroclub Airport,-30.9575,-61.5283,SA,AR,AR-S,NCJ
small_airport,Carmen De Patagones Airport,-40.7781,-62.9803,SA,AR,AR-B,CPG
small_airport,Termal Airport,-26.753610611,-60.4922218323,SA,AR,AR-H,PRQ
small_airport,Colonia Sarmiento Airport,-45.582371,-68.999841,SA,AR,AR-U,OLN
small_airport,Aragip Airport,-9.88333333333,149.483333333,OC,PG,PG-MBA,ARP
small_airport,Tau Airport,-14.229200363199999,-169.511001587,OC,AS,AS-U-A,TAV
small_airport,Asirim Airport,-6.0097222222200015,150.368611111,OC,PG,PG-WBK,ASZ
small_airport,Namatanai Airport,-3.6695,152.438,OC,PG,PG-NIK,ATN
small_airport,Aitape Airport,-3.14361111111,142.346805556,OC,PG,PG-SAN,ATP
small_airport,Lady Elliot Island Airstrip,-24.1129,152.7156,OC,AU,AU-QLD,LYT
small_airport,Agnew Airport,-12.145600318908693,142.1490020751953,OC,AU,AU-QLD,AGW
small_airport,Alroy Downs Airport,-19.29080009460449,136.07899475097656,OC,AU,AU-NT,AYD
small_airport,Baniyala Airport,-13.19810009,136.227005005,OC,AU,AU-NT,BYX
small_airport,Coolibah Airport,-15.548299789428713,130.96200561523438,OC,AU,AU-NT,COB
small_airport,Coorabie Airport,-31.894399642944336,132.29600524902344,OC,AU,AU-SA,CRJ
small_airport,Carlton Hill Airport,-15.50189971923828,128.53399658203122,OC,AU,AU-WA,CRY
small_airport,Cresswell Downs Airport,-17.947999954223633,135.91600036621094,OC,AU,AU-NT,CSD
small_airport,Diamantina Lakes Airport,-23.761699676513672,141.14500427246094,OC,AU,AU-QLD,DYM
seaplane_base,Hayman Island Resort Seaplane Base,-20.059999465942386,148.88099670410156,OC,AU,AU-QLD,HIS
small_airport,Helenvale Airport,-15.685799598693848,145.21499633789062,OC,AU,AU-QLD,HLV
small_airport,Kimberley Downs Airport,-17.39780044555664,124.3550033569336,OC,AU,AU-WA,KBD
small_airport,Kulgera Airport,-25.84280014038086,133.29200744628906,OC,AU,AU-NT,KGR
small_airport,Miranda Downs Airport,-17.328899383544922,141.88600158691406,OC,AU,AU-QLD,MWY
small_airport,Camballin Airport,-18.12470054626465,124.27200317382812,OC,AU,AU-WA,MYO
small_airport,Orchid Beach Airport,-24.959400177002,153.31500244141,OC,AU,AU-QLD,OKB
small_airport,Peppimenarti Airport,-14.144200325,130.09100341799999,OC,AU,AU-NT,PEP
small_airport,Rockhampton Downs Airport,-18.95330047607422,135.20100402832028,OC,AU,AU-NT,RDA
small_airport,Sturt Creek Airport,-19.166400909423828,128.17399597167972,OC,AU,AU-WA,SSK
small_airport,Shaw River Airport,-21.510299682617188,119.36199951171876,OC,AU,AU-WA,SWB
small_airport,Tom Price Airport,-22.746000289900003,117.869003296,OC,AU,AU-WA,TPR
small_airport,Torwood Airport,-17.363300323486328,143.75,OC,AU,AU-QLD,TWP
small_airport,Springvale Airport,-17.78689956665039,127.66999816894531,OC,AU,AU-WA,ZVG
small_airport,Aua Island Airport,-1.46055555556,143.064722222,OC,PG,PG-MRL,AUI
small_airport,Ambunti Airport,-4.21566666667,142.823166667,OC,PG,PG-ESW,AUJ
small_airport,Agaun Airport,-9.93083333333,149.385666667,OC,PG,PG-MBA,AUP
small_airport,Aumo Airport,-5.731111111110001,148.445277778,OC,PG,PG-WBK,AUV
small_airport,Alowe Airport,-0.538055555556,9.450277777779998,AF,GA,GA-3,AWE
small_airport,Alxa Left Banner-Bayanhot Airport,38.8241,105.626,AS,CN,CN-15,AXF
small_airport,Kompiam Airport,-5.381666666669999,143.924722222,OC,PG,PG-EPW,KPM
medium_airport,Buka Airport,-5.422319889068604,154.67300415039062,OC,PG,PG-NSB,BUA
small_airport,Biaru Airport,-7.6693,146.7594,OC,PG,PG-MPL,BRP
medium_airport,Chimbu Airport,-6.024290084838867,144.9709930419922,OC,PG,PG-CPK,CMU
small_airport,Munduku Airport,-4.6204,143.4516,OC,PG,PG-ESW,MDM
small_airport,Kondobol Airport,-8.5336,142.5049,OC,PG,PG-WPD,KPF
small_airport,Dinangat Airport,-6.1546,146.6772,OC,PG,PG-MPL,DNU
small_airport,Doini Airport,-10.7009,150.7218,OC,PG,PG-MBA,DOI
medium_airport,Daru Airport,-9.086759567260001,143.207992554,OC,PG,PG-WPD,DAU
small_airport,Embessa Airport,-9.447000000000001,148.7628,OC,PG,PG-NPP,EMS
small_airport,Edwaki Airport,-3.883986,141.792234,OC,PG,PG-SAN,XYR
small_airport,Eliptamin Airport,-5.0412,141.6779,OC,PG,PG-SAN,EPT
small_airport,Engati Airstrip,-6.9179,146.1053,OC,PG,PG-MPL,EGA
small_airport,Emo River Airstrip,-9.1234,148.0415,OC,PG,PG-NPP,EMO
small_airport,Erume Airport,-8.2538,146.9747,OC,PG,PG-CPM,ERU
small_airport,Meselia Airport,-6.1364,149.1183,OC,PG,PG-WBK,MFZ
small_airport,Feramin Airport,-5.207999999999999,141.6988,OC,PG,PG-SAN,FRQ
small_airport,Frieda River Airport,-4.610468,141.960138,OC,PG,PG-ESW,FAQ
small_airport,Fuma Airport,-6.3933,142.4408,OC,PG,PG-WPD,FUM
medium_airport,Goroka Airport,-6.0816898345900015,145.391998291,OC,PG,PG-EHG,GKA
small_airport,Guari Airport,-8.1286,146.8722,OC,PG,PG-CPM,GUG
small_airport,Garasa Airport,-7.980713000000001,147.21346100000002,OC,PG,PG-MPL,GRL
medium_airport,Gurney Airport,-10.311499595599999,150.333999634,OC,PG,PG-MBA,GUR
small_airport,Gusap Airport,-6.053196,145.959047,OC,PG,PG-GPK,GAP
medium_airport,Girua Airport,-8.80453968048,148.309005737,OC,PG,PG-NPP,PNP
small_airport,Gasuke Airport,-6.1028,141.7393,OC,PG,PG-WPD,GBC
small_airport,Habi Airport,-6.32,142.4893,OC,PG,PG-WPD,HBD
small_airport,Heiweni Airport,-7.4223,146.4276,OC,PG,PG-MPL,HNI
small_airport,Honinabi Airport,-16.2457,142.1771,OC,PG,PG-WPD,HNN
medium_airport,Kimbe Airport,-5.462170124053955,150.40499877929688,OC,PG,PG-WBK,HKN
small_airport,Haivaro Airport,-6.9406,143.059,OC,PG,PG-GPK,HIT
small_airport,Imane Airport,-6.7524,146.1072,OC,PG,PG-MPL,IMN
small_airport,Kungim Airport,-5.671,141.03,OC,PG,PG-WPD,KGM
small_airport,Imonda Airport,-3.3280000000000003,141.1573,OC,PG,PG-SAN,IMD
small_airport,Ialibu Airport,-6.2782,143.9944,OC,PG,PG-SHM,IAL
small_airport,Yongai Airport,-8.5289,147.4603,OC,PG,PG-CPM,KGH
small_airport,Losuia Airport,-8.505820274353027,151.08099365234375,OC,PG,PG-MBA,LSA
small_airport,Kopiago Airport,-5.3883,142.4977,OC,PG,PG-HE,KPA
small_airport,Kiunga Airport,-6.1257100105285645,141.28199768066406,OC,PG,PG-WPD,UNG
small_airport,Kanainj Airport,-5.2903,144.7072,OC,PG,PG-MPM,KNE
small_airport,Kikori Airport,-7.424379825592041,144.2500762939453,OC,PG,PG-GPK,KRI
medium_airport,Kerema Airport,-7.96361017227,145.770996094,OC,PG,PG-GPK,KMA
small_airport,Kar Kar Airport,-4.5569999999999995,145.9404,OC,PG,PG-MPM,KRX
small_airport,Kieta Airport,-6.305416666669999,155.728138889,OC,PG,PG-NSB,KIE
small_airport,Kuri Airport,-7.135083,143.27611100000001,OC,PG,PG-GPK,KUQ
medium_airport,Kavieng Airport,-2.57940006256,150.807998657,OC,PG,PG-NIK,KVG
small_airport,Londolovit Airport,-3.04361009598,152.628997803,OC,PG,PG-NIK,LNV
small_airport,Lab Lab Airport,-5.7204,148.0566,OC,PG,PG-MPL,LAB
small_airport,Lowai Airport,-6.3344,146.6458,OC,PG,PG-MPL,LWI
small_airport,Leron Plains Airport,-6.3917,146.3434,OC,PG,PG-MPL,LPN
small_airport,Lese Airport,-8.2799,146.2765,OC,PG,PG-GPK,LNG
small_airport,Long Island Airport,-5.3604,147.0177,OC,PG,PG-MPM,LSJ
small_airport,Manari Airport,-9.1908,147.6219,OC,PG,PG-NPP,MRM
small_airport,Morobe Airport,-7.74,147.59,OC,PG,PG-MPL,OBM
medium_airport,Madang Airport,-5.20707988739,145.789001465,OC,PG,PG-MPM,MAG
medium_airport,Mount Hagen Kagamuga Airport,-5.826789855957031,144.29600524902344,OC,PG,PG-WHM,HGU
small_airport,Mougulu Airport,-6.2808589999999995,142.420775,OC,PG,PG-WPD,GUV
medium_airport,Mendi Airport,-6.147739887237549,143.65699768066406,OC,PG,PG-SHM,MDU
medium_airport,Momote Airport,-2.061889886856079,147.4239959716797,OC,PG,PG-MRL,MAS
small_airport,Moro Airport,-6.36332988739,143.238006592,OC,PG,PG-SHM,MXH
small_airport,Misima Island Airport,-10.6892004013,152.837997437,OC,PG,PG-MBA,MIS
small_airport,Marawaka Airport,-6.9736,145.8849,OC,PG,PG-EHG,MWG
small_airport,Negarbo(Negabo) Airport,-6.567778,144.703058,OC,PG,PG-CPK,GBF
small_airport,Manguna Airport,-5.5777779999999995,151.792333,OC,PG,PG-EBR,MFO
small_airport,Kasonombe Airport,-6.3819,146.9859,OC,PG,PG-MPL,KSB
small_airport,Nomane Airport,-6.32183,145.070667,OC,PG,PG-CPK,NMN
small_airport,Nambaiyufa Airport,-6.2412,145.2424,OC,PG,PG-CPK,NBA
medium_airport,Lae Nadzab Airport,-6.5698299408,146.725997925,OC,PG,PG-MPL,LAE
small_airport,Konge Airport,-6.2239,147.2152,OC,PG,PG-MPL,KGB
small_airport,Oksapmin Airport,-5.2261,142.2259,OC,PG,PG-SAN,OKP
small_airport,Komako Airport,-7.3984,145.8827,OC,PG,PG-GPK,HOC
small_airport,Komaio Airport,-7.2714,143.5952,OC,PG,PG-GPK,KCJ
small_airport,Koroba Airport,-5.6952,142.7441,OC,PG,PG-HE,KDE
small_airport,Pangoa Airport,-7.0226,141.5605,OC,PG,PG-WPD,PGB
small_airport,Mapoda Airport,-7.979,143.1694,OC,PG,PG-WPD,MPF
small_airport,Pumani Airport,-9.7469,149.4766,OC,PG,PG-MBA,PMN
large_airport,Port Moresby Jacksons International Airport,-9.443380355834961,147.22000122070312,OC,PG,PG-NCD,POM
small_airport,Sopu Airport,-8.3038,147.1659,OC,PG,PG-CPM,SPH
small_airport,Sialum Airport,-6.0908,147.5955,OC,PG,PG-MPL,SXA
small_airport,Rumginae Airport,-5.89722222222,141.271666667,OC,PG,PG-WPD,RMN
small_airport,Karimui Airport,-6.4921,144.82299999999998,OC,PG,PG-CPK,KMR
small_airport,Maramuni Airport,-5.13,143.4829,OC,PG,PG-EPW,MWI
small_airport,May River Airstrip,-4.3615,141.785,OC,PG,PG-ESW,MRH
small_airport,Suabi Airport,-6.10444444444,142.278333333,OC,PG,PG-WPD,SBE
small_airport,Simberi Airport,-2.66222222222,151.997777778,OC,PG,PG-NIK,NIS
small_airport,Sila Airport,-9.07355555556,148.38925,OC,PG,PG-NPP,SIL
small_airport,Sabah Airport,-5.5765,155.0489,OC,PG,PG-NSB,SBV
small_airport,Simbai Airport,-5.278611111110001,144.54472222200002,OC,PG,PG-MPM,SIM
small_airport,Selbang Airport,-5.315,141.752,OC,PG,PG-WPD,SBC
small_airport,Sepik Plains Airport,-3.8821,143.6734,OC,PG,PG-ESW,SPV
small_airport,Masa Airport,-6.345,147.591,OC,PG,PG-MPL,MBV
small_airport,Tari Airport,-5.84499979019,142.947998047,OC,PG,PG-HE,TIZ
small_airport,Tabubil Airport,-5.278610229492188,141.2259979248047,OC,PG,PG-WPD,TBG
small_airport,Tapini Airport,-8.35666666667,146.989166667,OC,PG,PG-CPM,TPI
medium_airport,Tokua Airport,-4.34045982361,152.380004883,OC,PG,PG-EBR,RAB
small_airport,Tekin Airport,-5.24366666667,142.165194444,OC,PG,PG-SAN,TKW
small_airport,Tep Tep Airport,-5.9553,146.5595,OC,PG,PG-MPM,TEP
small_airport,Tsewi Airport,-7.0695,146.1272,OC,PG,PG-MPL,TSW
small_airport,Tarakbits Airport,-5.614,141.0421,OC,PG,PG-WPD,TRJ
small_airport,Tawa Airport,-7.4463,146.1067,OC,PG,PG-MPL,TWY
small_airport,Tekadu Airport,-7.6808,146.5503,OC,PG,PG-MPL,TKB
small_airport,Aiyura Airport,-6.3380555555599996,145.904166667,OC,PG,PG-EHG,AYU
small_airport,Umba Airport,-7.0214,145.966,OC,PG,PG-MPL,UMC
small_airport,Uroubi Airport,-9.5162,148.5591,OC,PG,PG-NPP,URU
small_airport,Upiara Airport,-8.5411,142.6503,OC,PG,PG-WPD,UPR
small_airport,Uvol Airport,-6.0178,150.9557,OC,PG,PG-EBR,UVO
small_airport,Talasea Airport,-5.2726,150.0089,OC,PG,PG-WBK,TLW
small_airport,Torembi Airport,-4.0165,143.1329,OC,PG,PG-ESW,TCJ
medium_airport,Vanimo Airport,-2.6971700191497803,141.302001953125,OC,PG,PG-SAN,VAI
small_airport,Tonu Airport,-6.6552,155.4326,OC,PG,PG-NSB,TON
small_airport,Wabo Airport,-6.989444444439999,145.075111111,OC,PG,PG-GPK,WAO
medium_airport,Wapenamanda Airport,-5.64330005645752,143.89500427246094,OC,PG,PG-EPW,WBM
medium_airport,Wewak International Airport,-3.5838301181800003,143.66900634799998,OC,PG,PG-ESW,WWK
small_airport,Wonenara Airport,-6.796861111110001,145.891944444,OC,PG,PG-EHG,WOA
small_airport,Wasu Airport,-5.961709449190001,147.19822526,OC,PG,PG-MPL,WSU
small_airport,Woitape Airport,-8.54583333333,147.2525,OC,PG,PG-CPM,WTP
small_airport,Wau Airport,-7.345555555560001,146.718611111,OC,PG,PG-SAN,WUG
small_airport,Yeva Airport,-7.547999999999999,146.188,OC,PG,PG-MPL,YVD
small_airport,Sim Airport,-7.75,146.9273,OC,PG,PG-MPL,SMJ
seaplane_base,Arugam Bay SPB,6.86,81.82388888890002,AS,LK,LK-5,AYY
small_airport,Yalumet Airport,-6.09,147.0117,OC,PG,PG-MPL,KYX
small_airport,Yasuru Airport,-6.6015,146.1813,OC,PG,PG-MPL,KSX
medium_airport,Zabrat Airport,40.4955422161,49.9768066406,AS,AZ,AZ-BA,ZXT
heliport,Lava Falls Heliport,36.1916007996,-113.092002869,,US,US-AZ,HAE
small_airport,Amazon Bay Airport,-10.2991666667,149.33833333299998,OC,PG,PG-CPM,AZB
small_airport,Bali Airport,-4.88333333333,149.133333333,OC,PG,PG-WBK,BAJ
small_airport,Branson Airport,36.532082,-93.200544,,US,US-MO,BKG
small_airport,Bambu Airport,-5.863611111110001,146.4925,OC,PG,PG-MPM,BCP
medium_airport,Benguera Island Airport,-21.85330009460449,35.43830108642578,AF,MZ,MZ-I,BCW
small_airport,Milyakburra Airport,-13.780833333299999,136.201666667,OC,AU,AU-NT,BCZ
small_airport,Willmar Municipal -John L Rice Field,45.11769867,-95.13040161,,US,US-MN,ILL
small_airport,Baindoung Airport,-6.34722222222,146.942222222,OC,PG,PG-MPL,BDZ
small_airport,Malevo Airport,41.871799469,25.6047992706,EU,BG,BG-26,HKV
medium_airport,Bezmer Air Base,42.4548988342,26.352199554400002,EU,BG,BG-28,JAM
medium_airport,Aasiaat Airport,68.7218017578,-52.7846984863,,GL,GL-U-A,JEG
heliport,Tasiilaq Heliport,65.61229608469999,-37.618335485500005,,GL,GL-U-A,AGM
heliport,Alluitsup Paa Heliport,60.46445,-45.56917,,GL,GL-U-A,LLU
heliport,Aappilattoq (Kujalleq) Heliport,60.148357106899994,-44.286918640100005,,GL,GL-U-A,QUV
heliport,Arsuk Heliport,61.176770660500004,-48.4197199345,,GL,GL-U-A,JRK
heliport,Ammassivik Heliport,60.5973757966,-45.3824454546,,GL,GL-U-A,QUW
heliport,Attu Heliport,67.9406628551,-53.6218696833,,GL,GL-U-A,QGQ
medium_airport,Narsarsuaq Airport,61.1604995728,-45.4259986877,,GL,GL-U-A,UAK
heliport,Qasigiannguit Heliport,68.822815547,-51.1734473705,,GL,GL-U-A,JCH
small_airport,Neerlerit Inaat Airport,70.7431030273,-22.650499343899998,,GL,GL-U-A,CNP
heliport,Eqalugaarsuit Heliport,60.619719653599994,-45.9140619636,,GL,GL-U-A,QFG
heliport,Narsaq Kujalleq Heliport,60.004693543900004,-44.6569347382,,GL,GL-U-A,QFN
medium_airport,Godthaab / Nuuk Airport,64.19090271,-51.678100585900005,,GL,GL-U-A,GOH
heliport,Qeqertarsuaq Heliport,69.251181993,-53.5148763657,,GL,GL-U-A,JGO
heliport,Iginniarfik,68.14722558609999,-53.1735277176,,GL,GL-U-A,QFI
heliport,Ikerassaarsuk Heliport,68.14088100629999,-53.4414589405,,GL,GL-U-A,QRY
heliport,Ilimanaq Heliport,69.0809150007,-51.114315390600005,,GL,GL-U-A,XIQ
heliport,Ikamiut Heliport,68.6342530984,-51.8322622776,,GL,GL-U-A,QJI
heliport,Qaqortoq Heliport,60.715684155299996,-46.0299186409,,GL,GL-U-A,JJU
small_airport,Ilulissat Airport,69.2432022095,-51.0570983887,,GL,GL-U-A,JAV
heliport,Kangaatsiaq Heliport,68.3126574861,-53.46020758149999,,GL,GL-U-A,QPW
small_airport,Kulusuk Airport,65.573600769,-37.1236000061,,GL,GL-U-A,KUS
heliport,Upernavik Kujalleq Heliport,72.15274252649999,-55.530985593800004,,GL,GL-U-A,UPK
heliport,Kitsissuarsuit Heliport,68.85792599759999,-53.1232953072,,GL,GL-U-A,QJE
small_airport,Maniitsoq Airport,65.4124984741,-52.939399719200004,,GL,GL-U-A,JSU
heliport,Niaqornaarsuk Heliport,68.2363811536,-52.8521481156,,GL,GL-U-A,QMK
heliport,Nanortalik Heliport,60.1418839759,-45.232976675,,GL,GL-U-A,JNN
heliport,Narsaq Heliport,60.9172827256,-46.059923172,,GL,GL-U-A,JNS
small_airport,Bongo Airport,-2.1713,10.2088,AF,GA,GA-8,BGP
small_airport,Paamiut Airport,62.014736175500005,-49.6709365845,,GL,GL-U-A,JFR
heliport,Qeqertaq Heliport,69.9958611087,-51.3009166718,,GL,GL-U-A,QQT
small_airport,Qaanaaq Airport,77.4886016846,-69.3887023926,,GL,GL-U-A,NAQ
heliport,Ittoqqortoormiit Heliport,70.4882288244,-21.971679925900002,,GL,GL-U-A,OBY
medium_airport,Kangerlussuaq Airport,67.0122218992,-50.7116031647,,GL,GL-U-A,SFJ
heliport,Saqqaq Heliport,70.0114481533,-51.932142376899996,,GL,GL-U-A,QUP
small_airport,Sisimiut Airport,66.9513015747,-53.729301452600005,,GL,GL-U-A,JHS
medium_airport,Thule Air Base,76.5311965942,-68.70320129390001,,GL,GL-U-A,THU
small_airport,Upernavik Airport,72.79019927979999,-56.130599975600006,,GL,GL-U-A,JUV
heliport,Uummannaq Heliport,70.6804279261,-52.111630439799995,,GL,GL-U-A,UMD
small_airport,Qaarsut Airport,70.7341995239,-52.696201324499995,,GL,GL-U-A,JQA
small_airport,Bahía de los Ángeles Airport,28.978599548339844,-113.56099700927734,,MX,MX-BCN,BHL
small_airport,Brighton Downs Airport,-23.3638888889,141.562777778,OC,AU,AU-QLD,BHT
medium_airport,Akureyri Airport,65.66000366210939,-18.07270050048828,EU,IS,IS-6,AEY
small_airport,Bildudalur Airport,65.64129638671875,-23.546199798583984,EU,IS,IS-4,BIU
small_airport,Borgarfjörður eystri Airport,65.51640319824219,-13.80500030517578,EU,IS,IS-7,BGJ
small_airport,Bakkafjörður Airport,66.02189636230469,-14.824399948120115,EU,IS,IS-6,BJD
small_airport,Hjaltabakki Airport,65.64499664306639,-20.287500381469727,EU,IS,IS-5,BLO
small_airport,Búðardalur Airport,65.07530212402344,-21.80030059814453,EU,IS,IS-3,BQD
small_airport,Breiðdalsvík Airport,64.79000091552734,-14.02280044555664,EU,IS,IS-7,BXV
small_airport,Djúpivogur Airport,64.64420318603516,-14.28279972076416,EU,IS,IS-7,DJU
medium_airport,Egilsstaðir Airport,65.28330230712889,-14.401399612426758,EU,IS,IS-7,EGS
small_airport,Fáskrúðsfjörður Airport,64.9317016602,-14.0606002808,EU,IS,IS-7,FAS
small_airport,Fagurhólsmýri Airport,63.87469863891602,-16.64109992980957,EU,IS,IS-7,FAG
small_airport,Grundarfjörður Airport,64.99140167236328,-23.22470092773437,EU,IS,IS-3,GUU
small_airport,Gjögur Airport,65.99530029296875,-21.326900482177734,EU,IS,IS-4,GJR
small_airport,Grímsey Airport,66.5458,-18.0173,EU,IS,IS-6,GRY
small_airport,Hólmavík Airport,65.70469665527344,-21.696399688720703,EU,IS,IS-4,HVK
medium_airport,Hornafjordur Airport,64.29560089111328,-15.22719955444336,EU,IS,IS-7,HFN
small_airport,Holt Airport,66.0141804294,-23.4416913986,EU,IS,IS-4,FLI
medium_airport,Husavik Airport,65.95230102539061,-17.426000595092773,EU,IS,IS-6,HZK
small_airport,Krókstaðarmelar Airport,65.26640319824219,-20.846900939941406,EU,IS,IS-5,HVM
small_airport,Ingjaldssanður Airport,66.05000305175781,-23.69610023498535,EU,IS,IS-4,HLO
medium_airport,Ísafjörður Airport,66.05809783935547,-23.13529968261719,EU,IS,IS-4,IFJ
large_airport,Keflavik International Airport,63.98500061035156,-22.605600357055664,EU,IS,IS-2,KEF
small_airport,Kópasker Airport,66.31079864501953,-16.466699600219727,EU,IS,IS-6,OPA
small_airport,Sauðárkrókur Airport,65.73169708249999,-19.5727996826,EU,IS,IS-5,SAK
small_airport,Norðfjörður Airport,65.13189697265625,-13.746399879455565,EU,IS,IS-7,NOR
small_airport,Ólafsfjörður Airport,66.08329772949219,-18.66670036315918,EU,IS,IS-6,OFJ
medium_airport,Patreksfjordur Airport,65.55580139160156,-23.96500015258789,EU,IS,IS-4,PFJ
small_airport,Reykhólar Airport,65.45262908935547,-22.20611572265625,EU,IS,IS-4,RHA
small_airport,Rif Airport,64.9113998413,-23.8230991364,EU,IS,IS-3,OLI
small_airport,Raufarhöfn Airport,66.40640258789061,-15.918299674987793,EU,IS,IS-6,RFN
medium_airport,Reykjavik Airport,64.1299972534,-21.9405994415,EU,IS,IS-1,RKV
small_airport,Reykjahlíð Airport,65.65579986572266,-16.918100357055664,EU,IS,IS-6,MVA
medium_airport,Siglufjordur Airport,66.13330078125,-18.91670036315918,EU,IS,IS-6,SIJ
small_airport,Stykkishólmur Airport,65.05809783935547,-22.7942008972168,EU,IS,IS-3,SYK
small_airport,Þingeyri Airport,65.87030029296875,-23.559999465942386,EU,IS,IS-4,TEY
small_airport,Thorshofn Airport,66.21849822998047,-15.335599899291992,EU,IS,IS-6,THO
medium_airport,Vestmannaeyjar Airport,63.42430114746094,-20.27890014648437,EU,IS,IS-8,VEY
small_airport,Vopnafjörður Airport,65.72059631347656,-14.850600242614744,EU,IS,IS-7,VPN
small_airport,Baleela Airport,11.199444444400001,28.5230555556,AF,SD,SD-13,BJE
small_airport,Bahja Airport,19.8730555556,56.067777777799996,AS,OM,OM-WU,BJQ
seaplane_base,Bentota River Waterdrome,6.431,79.99600000000001,AS,LK,LK-1,BJT
large_airport,Priština International Airport,42.57279968261719,21.03580093383789,EU,KS,KS-U-A,PRN
small_airport,Bomai Airport,-6.3731666666699995,144.637,OC,PG,PG-CPK,BMH
small_airport,Bamburi Airport,-3.9819096237300005,39.7307682037,AF,KE,KE-300,BMQ
small_airport,Bamu Airport,-7.8485,143.2433,OC,PG,PG-WPD,BMZ
seaplane_base,Warm Spring Bay Seaplane Base,57.0887985229,-134.832992554,,US,US-AK,BNF
small_airport,Bodinumu Airport,-9.107777777779999,147.666722222,OC,PG,PG-CPM,BNM
small_airport,Bundi Airport,-5.7422222222200014,145.2275,OC,PG,PG-MPM,BNT
small_airport,Rurenabaque Airport,-14.4279003143,-67.4968032837,SA,BO,BO-B,RBQ
small_airport,Baures Airport,-13.5833330154,-63.5833320618,SA,BO,BO-B,BVL
heliport,Bolling Air Force Base,38.8428993225,-77.0160980225,,US,US-DC,BOF
small_airport,Brookings Airport,42.074600219699995,-124.290000916,,US,US-OR,BOK
small_airport,Bosset Airport,-7.240833333329999,141.092333333,OC,PG,PG-WPD,BOT
small_airport,Boang Airport,-3.3834,153.2812,OC,PG,PG-NIK,BOV
small_airport,Batuna Aerodrome,-8.56202777778,158.119305556,OC,SB,SB-WE,BPF
seaplane_base,Bartlett Cove Seaplane Base,58.455200195299994,-135.88499450700002,,US,US-AK,BQV
small_airport,Alenquer Airport,-1.9169999999999998,-54.7231,SA,BR,BR-PA,ALT
seaplane_base,Bimini North Seaplane Base,25.767000198364254,-79.25,,BS,BS-BI,NSB
small_airport,Blairsville,40.4447222222,-79.28863888890001,,US,US-PA,BSI
small_airport,Bensbach Airport,-8.858055555560002,141.259444444,OC,PG,PG-WPD,BSP
small_airport,Besakoa Airport,-15.6725,47.0616666667,AF,MG,MG-M,BSV
small_airport,Bulolo Airport,-7.216286671410002,146.649541855,OC,PG,PG-MPL,BUL
small_airport,Esperadinha Airport,14.8643055556,-24.746,AF,CV,CV-S,BVR
small_airport,Hukuntsi Airport,-23.98970031738281,21.758100509643555,AF,BW,BW-KG,HUK
small_airport,Bawan Airport,-6.396944444440002,146.88166666700002,OC,PG,PG-MPL,BWJ
small_airport,Bewani Airport,-3.0216666666700003,141.165277778,OC,PG,PG-SAN,BWP
seaplane_base,Blue Lagoon Seaplane Base,-16.965833333299994,177.369888889,OC,FJ,FJ-W,BXL
small_airport,Bunsil Airport,-5.7243,147.8667,OC,PG,PG-MPL,BXZ
small_airport,Boundary Airport,64.0783004761,-141.113006592,,US,US-AK,BYA
small_airport,Bella Yella Airport,7.369166666669999,-9.99372222222,AF,LR,LR-LO,BYL
seaplane_base,Beira Lake Seaplane Base,6.9294444444400005,79.85416666670002,AS,LK,LK-1,BYV
small_airport,Belmopan Airport,17.269599914550778,-88.77649688720703,,BZ,BZ-CY,BCV
medium_airport,Big Creek Airport,16.51936912536621,-88.40791320800781,,BZ,BZ-SC,BGK
medium_airport,Caye Caulker Airport,17.734699249267578,-88.03250122070312,,BZ,BZ-BZ,CUK
medium_airport,Caye Chapel Airport,17.7007999420166,-88.04109954833984,,BZ,BZ-BZ,CYC
medium_airport,Corozal Municipal Airport,18.382200241088867,-88.41190338134766,,BZ,BZ-CZL,CZH
medium_airport,Dangriga Airport,16.98250961303711,-88.23098754882812,,BZ,BZ-SC,DGA
small_airport,Independence Airport,16.534500122070312,-88.44129943847656,,BZ,BZ-SC,INB
small_airport,Melinda Airport,17.004299163800003,-88.30419921880001,,BZ,BZ-SC,MDB
small_airport,Orange Walk Airport,18.0467662811,-88.58386993410002,,BZ,BZ-OW,ORZ
medium_airport,Placencia Airport,16.536956787109375,-88.36151123046875,,BZ,BZ-SC,PLJ
medium_airport,Punta Gorda Airport,16.102399826,-88.80829620360001,,BZ,BZ-TOL,PND
medium_airport,Sartaneja Airport,18.35610008239746,-88.13079833984375,,BZ,BZ-CZL,SJX
medium_airport,San Pedro Airport,17.91390037536621,-87.97109985351562,,BZ,BZ-CY,SPR
small_airport,Matthew Spain Airport,17.1859,-89.0098,,BZ,BZ-CY,SQS
small_airport,Santa Cruz Airport,18.2721004486084,-88.456298828125,,BZ,BZ-CZL,STU
small_airport,Silver Creek Airport,16.725299835205078,-88.33999633789062,,BZ,BZ-SC,SVK
medium_airport,Belize City Municipal Airport,17.516389846801758,-88.19444274902344,,BZ,BZ-BZ,TZA
medium_airport,Bazaruto Island Airport,-21.541099548339844,35.472900390625,AF,MZ,MZ-I,BZB
small_airport,Bemolanga Airport,-17.6925,45.0888333333,AF,MG,MG-M,BZM
small_airport,Stuart Island Airstrip,50.40944743359999,-125.13161659200001,,CA,CA-BC,YRR
small_airport,Mary River Aerodrome,71.3241666667,-79.3569444444,,CA,CA-NU,YMV
seaplane_base,Bedwell Harbour Seaplane Base,48.75,-123.23300170899999,,CA,CA-BC,YBW
seaplane_base,Tofino Harbour Seaplane Base,49.155,-125.91,,CA,CA-BC,YTP
seaplane_base,Nanaimo Harbour Water Airport,49.1833000183,-123.94999694799999,,CA,CA-BC,ZNA
small_airport,Trail Airport,49.0555992126,-117.60900116,,CA,CA-BC,YZZ
small_airport,Merritt Airport,50.1227989197,-120.747001648,,CA,CA-BC,YMB
seaplane_base,Campbell River Seaplane Base,50.0499992371,-125.25,,CA,CA-BC,YHH
seaplane_base,Whistler/Green Lake Water Aerodrome,50.1436004639,-122.948997498,,CA,CA-BC,YWS
seaplane_base,Bamfield Seaplane Base,48.8333015442,-125.133003235,,CA,CA-BC,YBF
seaplane_base,Big Bay Seaplane Base,50.3923,-125.1372,,CA,CA-BC,YIG
small_airport,Chilko Lake (Tsylos Park Lodge) Airport,51.626098632799994,-124.14199829100001,,CA,CA-BC,CJH
seaplane_base,Pender Harbour Seaplane Base,49.6166992188,-124.01699829100001,,CA,CA-BC,YPT
seaplane_base,Ocean Falls Seaplane Base,52.3666992188,-127.717002869,,CA,CA-BC,ZOF
small_airport,Anahim Lake Airport,52.45249938964844,-125.3030014038086,,CA,CA-BC,YAA
small_airport,Douglas Lake Airport,50.1654600485,-120.17127335100001,,CA,CA-BC,DGF
small_airport,Fort MacKay/Albian Aerodrome,57.2238998413,-111.418998718,,CA,CA-AB,JHL
seaplane_base,Tahsis Seaplane Base,49.9166984558,-126.666999817,,CA,CA-BC,ZTS
small_airport,Duncan Airport,48.7545336204,-123.709702492,,CA,CA-BC,DUQ
small_airport,Sechelt-Gibsons Airport,49.460601806599996,-123.71900177,,CA,CA-BC,YHS
seaplane_base,Kitkatla Seaplane Base,53.7999992371,-130.432998657,,CA,CA-BC,YKK
seaplane_base,Powell Lake Seaplane Base,49.8833007812,-124.532997131,,CA,CA-BC,WPL
small_airport,Port Mcneill Airport,50.5755996704,-127.028999329,,CA,CA-BC,YMP
seaplane_base,Mansons Landing Seaplane Base,50.0666999817,-124.98300170899999,,CA,CA-BC,YMU
seaplane_base,Ganges Seaplane Base,48.8545,-123.4969,,CA,CA-BC,YGG
small_airport,Cherrabun Airport,-18.917777777800005,125.53777777799999,OC,AU,AU-WA,CBC
small_airport,Bob Quinn Lake Airport,56.9667015076,-130.25,,CA,CA-BC,YBO
small_airport,Williams Harbour Airport,52.56689834594727,-55.78469848632813,,CA,CA-NL,YWM
small_airport,Black Tickle Airport,53.469398498500006,-55.784999847399995,,CA,CA-NL,YBI
small_airport,St. Lewis (Fox Harbour) Airport,52.37279891967773,-55.67390060424805,,CA,CA-NL,YFX
small_airport,Port Hope Simpson Airport,52.528099060058594,-56.28609848022461,,CA,CA-NL,YHA
small_airport,Rigolet Airport,54.1796989440918,-58.45750045776367,,CA,CA-NL,YRG
small_airport,George T Lewis Airport,29.1352567648,-83.0483901501,,US,US-FL,CDK
small_airport,Diavik Airport,64.5113983154,-110.289001465,,CA,CA-NT,DVK
small_airport,Doris Lake,68.1252746582,-106.58528137200001,,CA,CA-NU,JOJ
small_airport,Colville Lake Airport,67.03330230712889,-126.08300018310548,,CA,CA-NT,YCK
small_airport,Fairview Airport,56.081401825,-118.434997559,,CA,CA-AB,ZFW
small_airport,Hinton/Jasper-Hinton Airport,53.3191986084,-117.752998352,,CA,CA-AB,YJP
small_airport,Whatì Airport,63.13169860839844,-117.24600219726562,,CA,CA-NT,YLE
small_airport,Fort McMurray / Mildred Lake Airport,57.0555992126,-111.573997498,,CA,CA-AB,NML
small_airport,St. Paul Airport,53.9933013916,-111.379997253,,CA,CA-AB,ZSP
small_airport,Taltheilei Narrows Airport,62.5980987549,-111.54299926799999,,CA,CA-NT,GSL
small_airport,Macmillan Pass Airport,63.181098938000005,-130.20199585,,CA,CA-YT,XMP
small_airport,Great Bear Lake Airport,66.7031021118,-119.70700073200001,,CA,CA-NT,DAS
small_airport,Fort Mackay / Firebag,57.2758333344,-110.976666667,,CA,CA-AB,YFI
small_airport,Okoyo Airport,-1.4483300447463991,15.0733003616333,AF,CG,CG-8,OKG
seaplane_base,Craig Seaplane Base,55.47880172729492,-133.14799499511722,,US,US-AK,CGA
small_airport,Cape Gloucester Airport,-5.458965268199999,148.432416916,OC,PG,PG-WBK,CGC
small_airport,Casiguran Airport,16.1941,122.0651,AS,PH,PH-AUR,CGG
small_airport,Chinguetti Airport,20.5055,-12.3978,AF,MR,MR-07,CGT
small_airport,Circle Hot Springs Airport,65.485496521,-144.61099243200002,,US,US-AK,CHP
seaplane_base,Chomley Seaplane Base,55.217,-132.21,,US,US-AK,CIV
small_airport,Laurie River Airport,56.2486000061,-101.304000854,,CA,CA-MB,LRQ
small_airport,Cluff Lake Airport,58.391101837200004,-109.51599884,,CA,CA-SK,XCL
small_airport,Summer Beaver Airport,52.70859909057617,-88.54190063476562,,CA,CA-ON,SUR
small_airport,Crooked Creek Airport,61.867900848400005,-158.13499450700002,,US,US-AK,CKD
small_airport,Wapekeka Airport,53.84920120239258,-89.57939910888672,,CA,CA-ON,YAX
small_airport,Wunnumin Lake Airport,52.89390182495117,-89.28919982910156,,CA,CA-ON,WNN
small_airport,Opapimiskan Lake Airport,52.6067008972,-90.3768997192,,CA,CA-ON,YBS
small_airport,North Spirit Lake Airport,52.4900016784668,-92.97109985351562,,CA,CA-ON,YNO
small_airport,Crane Island Airstrip,48.5978,-122.9979,,US,US-WA,CKR
small_airport,Cordova Municipal Airport,60.5438995361,-145.727005005,,US,US-AK,CKU
small_airport,Chicken Airport,64.0712966919,-141.95199585,,US,US-AK,CKX
small_airport,Caia Airport,-17.8331,35.3341,AF,MZ,MZ-S,CMZ
small_airport,Tangshan Sannühe Airport,39.7178001404,118.00262451200001,AS,CN,CN-13,TVS
medium_airport,Zhangjiakou Ningyuan Airport,40.7386016846,114.930000305,AS,CN,CN-13,ZQZ
medium_airport,Baoshan Yunduan Airport,25.0533008575,99.168296814,AS,CN,CN-53,BSD
small_airport,Dazu Air Base,29.636227,105.77362099999999,AS,CN,CN-50,DZU
medium_airport,Lintsang Airfield,23.738100051900002,100.025001526,AS,CN,CN-53,LNJ
medium_airport,Bao'anying Airport,26.54,101.79852,AS,CN,CN-51,PZI
medium_airport,Foshan Shadi Airport,23.0832996368,113.069999695,AS,CN,CN-44,FUO
medium_airport,Huizhou Airport,23.0499992371,114.599998474,AS,CN,CN-44,HUZ
medium_airport,Shaoguan Guitou Airport,24.9785995483,113.42099762,AS,CN,CN-44,HSC
medium_airport,Jinggangshan Airport,26.8568992615,114.73699951200001,AS,CN,CN-36,JGS
medium_airport,Baise Youjiang Airport,23.7206001282,106.959999084,AS,CN,CN-45,AEB
medium_airport,Dongying Shengli Airport,37.508598327600005,118.788002014,AS,CN,CN-37,DOY
medium_airport,Xingcheng Air Base,40.580299377399996,120.69799804700001,AS,CN,CN-21,XEN
medium_airport,Altay Air Base,47.7498855591,88.0858078003,AS,CN,CN-65,AAT
medium_airport,Tianshui Maijishan Airport,34.559398651100004,105.86000061,AS,CN,CN-62,THQ
medium_airport,Zhangye Ganzhou Airport,38.8018989563,100.67500305200001,AS,CN,CN-62,YZY
medium_airport,Dandong Airport,40.0247001648,124.28600311299999,AS,CN,CN-21,DDG
small_airport,Nantong Airport,32.0708007812,120.975997925,AS,CN,CN-32,NTG
small_airport,Bearskin Lake Airport,53.965599060058594,-91.0271987915039,,CA,CA-ON,XBE
small_airport,Brockville - Thousand Islands Regional Tackaberry Airport,44.6394004822,-75.7502975464,,CA,CA-ON,XBR
small_airport,Kingfisher Lake Airport,53.01250076293945,-89.85530090332031,,CA,CA-ON,KIF
small_airport,Kincardine Airport,44.201400756800005,-81.6066970825,,CA,CA-ON,YKD
small_airport,Ogoki Post Airport,51.65859985350001,-85.9017028809,,CA,CA-ON,YOG
small_airport,El Troncal Airport,7.02106,-71.388901,SA,CO,CO-ARA,ARQ
small_airport,La Chorrera Airport,-0.733333,-73.01666999999999,SA,CO,CO-AMA,LCR
small_airport,Las Cruces Airport,7.38322,-73.505402,SA,CO,CO-SAN,SNT
small_airport,Tarapacá Airport,-2.867,-69.733002,SA,CO,CO-AMA,TCD
small_airport,Bar River Airport,46.42029953,-84.0922012329,,CA,CA-ON,YEB
small_airport,Cape Orford Airport,-5.448333333330001,152.081944444,OC,PG,PG-EBR,CPI
small_airport,Poplar Hill Airport,52.11330032348633,-94.25559997558594,,CA,CA-ON,YHP
small_airport,Keewaywin Airport,52.9911003113,-92.8364028931,,CA,CA-ON,KEW
small_airport,Lebel-sur-Quevillon Airport,49.0303001404,-77.0171966553,,CA,CA-QC,YLS
small_airport,Snap Lake Airport,63.593601226800004,-110.90599823,,CA,CA-NT,YNX
small_airport,La Sarre Airport,48.917198181152,-79.178596496582,,CA,CA-QC,SSQ
small_airport,Chisasibi Airport,53.80559921264648,-78.91690063476562,,CA,CA-QC,YKU
heliport,Rentschler Heliport,41.7517,-72.6253,,US,US-CT,EHT
small_airport,Tête-à-la-Baleine Airport,50.674400329589844,-59.38359832763672,,CA,CA-QC,ZTB
small_airport,Kegaska Airport,50.1958007812,-61.2658004761,,CA,CA-QC,ZKG
small_airport,Donaldson Airport,61.662200927700006,-73.3214035034,,CA,CA-QC,YAU
seaplane_base,Ottawa / Rockcliffe Seaplane Base,45.463832946100005,-75.64254283910002,,CA,CA-ON,TR7
small_airport,La Tabatière Airport,50.8307991027832,-58.97560119628906,,CA,CA-QC,ZLT
small_airport,Preston Airport,20.73500061035156,-75.6583023071289,,CU,CU-11,PST
small_airport,Hollister Municipal Airport,36.8932991028,-121.41000366200001,,US,US-CA,HLI
small_airport,Cape Vogel Airport,-9.67,150.019722222,OC,PG,PG-MBA,CVL
small_airport,Chitina Airport,61.582901001,-144.427001953,,US,US-AK,CXC
medium_airport,Geçitkale Air Base,35.235946655300005,33.724357605,AS,CY,CY-03,GEC
medium_airport,Cat Lake Airport,51.72719955444336,-91.82440185546876,,CA,CA-ON,YAC
small_airport,La Grande-3 Airport,53.5717010498,-76.19640350339998,,CA,CA-QC,YAR
medium_airport,Fort Frances Municipal Airport,48.65420150756836,-93.439697265625,,CA,CA-ON,YAG
medium_airport,La Grande-4 Airport,53.754699707,-73.67530059810001,,CA,CA-QC,YAH
medium_airport,Alert Bay Airport,50.58219909667969,-126.91600036621094,,CA,CA-BC,YAL
medium_airport,Sault Ste Marie Airport,46.48500061035156,-84.5093994140625,,CA,CA-ON,YAM
medium_airport,Kasabonika Airport,53.52470016479492,-88.6427993774414,,CA,CA-ON,XKS
medium_airport,Kangirsuk Airport,60.027198791503906,-69.99919891357422,,CA,CA-QC,YKG
medium_airport,Attawapiskat Airport,52.9275016784668,-82.43190002441406,,CA,CA-ON,YAT
heliport,Halifax / CFB Shearwater Heliport,44.639701843299996,-63.4994010925,,CA,CA-NS,YAW
medium_airport,St. Anthony Airport,51.391899108900006,-56.083099365200006,,CA,CA-NL,YAY
medium_airport,Tofino / Long Beach Airport,49.0798255464,-125.775604248,,CA,CA-BC,YAZ
small_airport,Banff Airport,51.2073404699,-115.541861057,,CA,CA-AB,YBA
medium_airport,Kugaaruk Airport,68.5344009399,-89.80809783939999,,CA,CA-NU,YBB
medium_airport,Baie Comeau Airport,49.13249969482422,-68.20439910888672,,CA,CA-QC,YBC
medium_airport,Bella Coola Airport,52.38750076293945,-126.59600067138672,,CA,CA-BC,QBC
medium_airport,Uranium City Airport,59.5614013671875,-108.4810028076172,,CA,CA-SK,YBE
medium_airport,Bonnyville Airport,54.30419921875,-110.74400329589844,,CA,CA-AB,YBY
medium_airport,CFB Bagotville,48.33060073852539,-70.99639892578125,,CA,CA-QC,YBG
medium_airport,Baker Lake Airport,64.29889678960001,-96.077796936,,CA,CA-NU,YBK
medium_airport,Campbell River Airport,49.95080184936523,-125.27100372314452,,CA,CA-BC,YBL
heliport,CFB Borden,44.2717018127,-79.91249847410002,,CA,CA-ON,YBN
medium_airport,Tadoule Lake Airport,58.70610046386719,-98.51219940185548,,CA,CA-MB,XTL
medium_airport,Brandon Municipal Airport,49.90999984741211,-99.95189666748048,,CA,CA-MB,YBR
medium_airport,Brochet Airport,57.88940048217773,-101.6790008544922,,CA,CA-MB,YBT
medium_airport,Berens River Airport,52.3588981628418,-97.01830291748048,,CA,CA-MB,YBV
medium_airport,Lourdes de Blanc Sablon Airport,51.4435997009,-57.1852989197,,CA,CA-QC,YBX
medium_airport,Cartwright Airport,53.68280029296875,-57.04190063476562,,CA,CA-NL,YRF
medium_airport,Cambridge Bay Airport,69.1081008911,-105.13800048799999,,CA,CA-NU,YCB
medium_airport,Cornwall Regional Airport,45.09280014038086,-74.56330108642578,,CA,CA-ON,YCC
medium_airport,Nanaimo Airport,49.054970224899996,-123.869862556,,CA,CA-BC,YCD
medium_airport,James T. Field Memorial Aerodrome,43.28559875488281,-81.50830078125,,CA,CA-ON,YCE
medium_airport,Castlegar/West Kootenay Regional Airport,49.296398162799996,-117.63200378399999,,CA,CA-BC,YCG
medium_airport,Miramichi Airport,47.0078010559082,-65.44920349121094,,CA,CA-NB,YCH
small_airport,Chatham Kent Airport,42.3064002991,-82.0819015503,,CA,CA-ON,XCM
medium_airport,Charlo Airport,47.99079895019531,-66.33029937744139,,CA,CA-NB,YCL
medium_airport,Cochrane Airport,49.10559844970703,-81.01360321044922,,CA,CA-ON,YCN
medium_airport,Kugluktuk Airport,67.81670379639999,-115.14399719200001,,CA,CA-NU,YCO
medium_airport,Chetwynd Airport,55.68719863891602,-121.6269989013672,,CA,CA-BC,YCQ
medium_airport,Cross Lake (Charlie Sinclair Memorial) Airport,54.61059951782226,-97.76080322265624,,CA,CA-MB,YCR
medium_airport,Chesterfield Inlet Airport,63.346900939899996,-90.7311019897,,CA,CA-NU,YCS
small_airport,Coronation Airport,52.0750007629,-111.444999695,,CA,CA-AB,YCT
small_airport,Chilliwack Airport,49.1528015137,-121.93900299100001,,CA,CA-BC,YCW
heliport,CFB Gagetown Heliport,45.8376780475,-66.4367267489,,CA,CA-NB,YCX
medium_airport,Clyde River Airport,70.4860992432,-68.5167007446,,CA,CA-NU,YCY
small_airport,Fairmont Hot Springs Airport,50.330299377399996,-115.87300109899999,,CA,CA-BC,YCZ
medium_airport,Dawson City Airport,64.04309844970703,-139.12800598144528,,CA,CA-YT,YDA
medium_airport,Burwash Airport,61.37110137939453,-139.04100036621094,,CA,CA-YT,YDB
medium_airport,Deer Lake Airport,49.21080017089844,-57.39139938354492,,CA,CA-NL,YDF
small_airport,Dease Lake Airport,58.4221992493,-130.031997681,,CA,CA-BC,YDL
medium_airport,Ross River Airport,61.9706001282,-132.42300415,,CA,CA-YT,XRR
medium_airport,Dauphin Barker Airport,51.10079956054688,-100.052001953125,,CA,CA-MB,YDN
medium_airport,Dolbeau St Felicien Airport,48.77849960327149,-72.375,,CA,CA-QC,YDO
medium_airport,Nain Airport,56.54919815063477,-61.68030166625977,,CA,CA-NL,YDP
medium_airport,Dawson Creek Airport,55.7422981262207,-120.18299865722656,,CA,CA-BC,YDQ
heliport,Edmonton (CFB Namao) Heliport,53.667934296300004,-113.472547531,,CA,CA-AB,YED
large_airport,Edmonton International Airport,53.309700012200004,-113.580001831,,CA,CA-AB,YEG
medium_airport,Arviat Airport,61.0942001343,-94.0708007812,,CA,CA-NU,YEK
medium_airport,Elliot Lake Municipal Airport,46.351398468,-82.5614013672,,CA,CA-ON,YEL
medium_airport,Manitoulin East Municipal Airport,45.84280014038086,-81.85810089111328,,CA,CA-ON,YEM
medium_airport,Estevan Airport,49.210300445600005,-102.96600341799999,,CA,CA-SK,YEN
medium_airport,Fort Severn Airport,56.01890182495117,-87.67610168457031,,CA,CA-ON,YER
medium_airport,Edson Airport,53.5788993835,-116.46499633799999,,CA,CA-AB,YET
small_airport,Eureka Airport,79.9946975708,-85.814201355,,CA,CA-NU,YEU
medium_airport,Inuvik Mike Zubko Airport,68.30419921880001,-133.483001709,,CA,CA-NT,YEV
medium_airport,Amos Magny Airport,48.56389999389648,-78.24970245361328,,CA,CA-QC,YEY
medium_airport,Fort Albany Airport,52.20140075683594,-81.6968994140625,,CA,CA-ON,YFA
medium_airport,Iqaluit Airport,63.756401061999995,-68.5558013916,,CA,CA-NU,YFB
medium_airport,Fredericton Airport,45.86890029907226,-66.53720092773439,,CA,CA-NB,YFC
medium_airport,Forestville Airport,48.74610137939453,-69.09719848632811,,CA,CA-QC,YFE
medium_airport,Fort Hope Airport,51.5619010925293,-87.90779876708984,,CA,CA-ON,YFH
medium_airport,La Macaza / Mont-Tremblant International Inc Airport,46.409400939899996,-74.7799987793,,CA,CA-QC,YTM
medium_airport,Flin Flon Airport,54.6781005859375,-101.68199920654295,,CA,CA-MB,YFO
medium_airport,Fort Resolution Airport,61.1808013916,-113.690002441,,CA,CA-NT,YFR
medium_airport,Fort Simpson Airport,61.76020050048828,-121.23699951171876,,CA,CA-NT,YFS
medium_airport,Makkovik Airport,55.07690048217773,-59.1864013671875,,CA,CA-NL,YMN
medium_airport,Texada Gillies Bay Airport,49.69419860839844,-124.51799774169922,,CA,CA-BC,YGB
medium_airport,Fort Good Hope Airport,66.24079895019531,-128.6510009765625,,CA,CA-NT,YGH
medium_airport,Kingston Norman Rogers Airport,44.22529983520508,-76.5969009399414,,CA,CA-ON,YGK
medium_airport,La Grande Rivière Airport,53.62530136108398,-77.7042007446289,,CA,CA-QC,YGL
medium_airport,Gimli Industrial Park Airport,50.62810134887695,-97.04329681396484,,CA,CA-MB,YGM
medium_airport,Gods Lake Narrows Airport,54.55889892578125,-94.49140167236328,,CA,CA-MB,YGO
medium_airport,Gaspé (Michel-Pouliot) Airport,48.775299072299994,-64.4785995483,,CA,CA-QC,YGP
medium_airport,Geraldton Greenstone Regional Airport,49.77830123901367,-86.93939971923828,,CA,CA-ON,YGQ
medium_airport,Îles-de-la-Madeleine Airport,47.42470169067383,-61.778099060058594,,CA,CA-QC,YGR
medium_airport,Igloolik Airport,69.3647003174,-81.8161010742,,CA,CA-NU,YGT
medium_airport,Havre St Pierre Airport,50.281898498535156,-63.61140060424805,,CA,CA-QC,YGV
medium_airport,Kuujjuarapik Airport,55.281898498535156,-77.76529693603516,,CA,CA-QC,YGW
medium_airport,Gillam Airport,56.35749816894531,-94.71060180664062,,CA,CA-MB,YGX
medium_airport,Grise Fiord Airport,76.4261016846,-82.90920257570002,,CA,CA-NU,YGZ
medium_airport,Quaqtaq Airport,61.0463981628418,-69.6177978515625,,CA,CA-QC,YQC
small_airport,Hudson Bay Airport,52.8166999817,-102.31099700899999,,CA,CA-SK,YHB
seaplane_base,Vancouver Harbour Water Aerodrome,49.2943992615,-123.111000061,,CA,CA-BC,CXH
medium_airport,Dryden Regional Airport,49.83169937133789,-92.74420166015624,,CA,CA-ON,YHD
medium_airport,Hope Airport,49.3683013916,-121.49800109899999,,CA,CA-BC,YHE
medium_airport,Hearst René Fontaine Municipal Airport,49.71419906616211,-83.68609619140625,,CA,CA-ON,YHF
medium_airport,Nemiscau Airport,51.69110107421875,-76.1355972290039,,CA,CA-QC,YNS
medium_airport,Ulukhaktok Holman Airport,70.76280212402344,-117.80599975585938,,CA,CA-NT,YHI
medium_airport,Gjoa Haven Airport,68.635597229,-95.8497009277,,CA,CA-NU,YHK
medium_airport,John C. Munro Hamilton International Airport,43.173599243199995,-79.93499755859999,,CA,CA-ON,YHM
medium_airport,Hornepayne Municipal Airport,49.19309997558594,-84.75890350341797,,CA,CA-ON,YHN
medium_airport,Hopedale Airport,55.44829940795898,-60.228599548339844,,CA,CA-NL,YHO
medium_airport,Chevery Airport,50.46889877319336,-59.63669967651367,,CA,CA-QC,YHR
medium_airport,Haines Junction Airport,60.78919982910156,-137.54600524902344,,CA,CA-YT,YHT
medium_airport,Montréal / Saint-Hubert Airport,45.5175018311,-73.4169006348,,CA,CA-QC,YHU
medium_airport,Hay River / Merlyn Carter Airport,60.8396987915,-115.782997131,,CA,CA-NT,YHY
large_airport,Halifax / Stanfield International Airport,44.880798339799995,-63.508598327600005,,CA,CA-NS,YHZ
medium_airport,Atikokan Municipal Airport,48.7738990784,-91.6386032104,,CA,CA-ON,YIB
medium_airport,Digby / Annapolis Regional Airport,44.5458450365,-65.7854247093,,CA,CA-NS,YDG
medium_airport,St Augustin Airport,51.2117004395,-58.6582984924,,CA,CA-QC,YIF
medium_airport,Ivujivik Airport,62.41730117797852,-77.92530059814453,,CA,CA-QC,YIK
medium_airport,Pond Inlet Airport,72.6832962036,-77.9666976929,,CA,CA-NU,YIO
medium_airport,Island Lake Airport,53.857200622558594,-94.65360260009766,,CA,CA-MB,YIV
medium_airport,Fort Liard Airport,60.2358016968,-123.46900177,,CA,CA-NT,YJF
medium_airport,St Jean Airport,45.29439926147461,-73.28109741210938,,CA,CA-QC,YJN
small_airport,Denny Island Airport,52.139701843299996,-128.063995361,,CA,CA-BC,ZEL
medium_airport,Stephenville Airport,48.5442008972168,-58.54999923706055,,CA,CA-NL,YJT
medium_airport,Kamloops Airport,50.702201843299996,-120.444000244,,CA,CA-BC,YKA
small_airport,Collins Bay Airport,58.236099243199995,-103.678001404,,CA,CA-SK,YKC
medium_airport,Aklavik Airport,68.22329711914061,-135.00599670410156,,CA,CA-NT,LAK
medium_airport,Waterloo Airport,43.4608001709,-80.3786010742,,CA,CA-ON,YKF
medium_airport,Kangiqsujuaq (Wakeham Bay) Airport,61.5886001587,-71.929397583,,CA,CA-QC,YWB
medium_airport,Key Lake Airport,57.25609970092773,-105.61799621582031,,CA,CA-SK,YKJ
medium_airport,Schefferville Airport,54.80530166625977,-66.8052978515625,,CA,CA-QC,YKL
medium_airport,Akulivik Airport,60.81859970092773,-78.14859771728516,,CA,CA-QC,AKV
medium_airport,Waskaganish Airport,51.47330093383789,-78.75830078125,,CA,CA-QC,YKQ
medium_airport,Kirkland Lake Airport,48.21030044555664,-79.98139953613281,,CA,CA-ON,YKX
medium_airport,Kindersley Airport,51.5175018311,-109.180999756,,CA,CA-SK,YKY
medium_airport,Buttonville Municipal Airport,43.86220169067383,-79.37000274658203,,CA,CA-ON,YKZ
medium_airport,Aupaluk Airport,59.29669952392578,-69.59970092773439,,CA,CA-QC,YPJ
small_airport,Lac La Biche Airport,54.7703018188,-112.03199768100001,,CA,CA-AB,YLB
medium_airport,Kimmirut Airport,62.8499984741,-69.88330078119999,,CA,CA-NU,YLC
medium_airport,Chapleau Airport,47.81999969482422,-83.3467025756836,,CA,CA-ON,YLD
medium_airport,Lansdowne House Airport,52.19559860229492,-87.93419647216797,,CA,CA-ON,YLH
medium_airport,Meadow Lake Airport,54.12530136108398,-108.52300262451172,,CA,CA-SK,YLJ
medium_airport,Lutselk'e Airport,62.41830062866211,-110.68199920654295,,CA,CA-NT,YSG
medium_airport,Lloydminster Airport,53.30920028686523,-110.072998046875,,CA,CA-AB,YLL
small_airport,La Tuque Airport,47.4096984863,-72.78890228270001,,CA,CA-QC,YLQ
medium_airport,Leaf Rapids Airport,56.51330184936523,-99.98529815673828,,CA,CA-MB,YLR
small_airport,Barrie-Orillia (Lake Simcoe Regional Airport),44.485298156700004,-79.55560302730001,,CA,CA-ON,YLK
medium_airport,Alert Airport,82.51779937740001,-62.280601501499994,,CA,CA-NU,YLT
medium_airport,Kangiqsualujjuaq (Georges River) Airport,58.71139907836914,-65.9927978515625,,CA,CA-QC,XGR
medium_airport,Kelowna International Airport,49.9561004639,-119.377998352,,CA,CA-BC,YLW
seaplane_base,Chatham Seaplane Base,57.5149002075,-134.945999146,,US,US-AK,CYM
medium_airport,Mayo Airport,63.61640167236328,-135.86799621582028,,CA,CA-YT,YMA
medium_airport,Matane Airport,48.85689926147461,-67.45330047607422,,CA,CA-QC,YME
medium_airport,Manitouwadge Airport,49.083900451660156,-85.86060333251953,,CA,CA-ON,YMG
medium_airport,Mary's Harbour Airport,52.30279922485352,-55.84719848632813,,CA,CA-NL,YMH
medium_airport,Moose Jaw Air Vice Marshal C. M. McEwen Airport,50.330299377441406,-105.55899810791016,,CA,CA-SK,YMJ
medium_airport,Charlevoix Airport,47.59749984741211,-70.22389984130861,,CA,CA-QC,YML
medium_airport,Fort McMurray Airport,56.653301238999994,-111.22200012200001,,CA,CA-AB,YMM
medium_airport,Moosonee Airport,51.291099548339844,-80.60780334472656,,CA,CA-ON,YMO
medium_airport,Chapais Airport,49.77190017700195,-74.5280990600586,,CA,CA-QC,YMT
medium_airport,Umiujaq Airport,56.53609848022461,-76.51830291748047,,CA,CA-QC,YUD
small_airport,Maniwaki Airport,46.272800445600005,-75.9906005859,,CA,CA-QC,YMW
medium_airport,Montreal International (Mirabel) Airport,45.67950057979999,-74.0386962891,,CA,CA-QC,YMX
medium_airport,Natashquan Airport,50.18999862670898,-61.78919982910156,,CA,CA-QC,YNA
medium_airport,Wemindji Airport,53.01060104370117,-78.83110046386719,,CA,CA-QC,YNC
medium_airport,Ottawa / Gatineau Airport,45.5217018127,-75.5635986328,,CA,CA-QC,YND
medium_airport,Norway House Airport,53.95830154418945,-97.84420013427734,,CA,CA-MB,YNE
small_airport,Hudsons Hope Airport,56.0355987549,-121.975997925,,CA,CA-BC,YNH
small_airport,Langley Airport,49.10079956049999,-122.630996704,,CA,CA-BC,YLY
medium_airport,Points North Landing Airport,58.27669906616211,-104.08200073242188,,CA,CA-SK,YNL
medium_airport,Matagami Airport,49.76169967651367,-77.80280303955078,,CA,CA-QC,YNM
small_airport,Fort Mackay / Horizon Airport,57.3816986084,-111.70099639899999,,CA,CA-AB,HZP
medium_airport,Ekati Airport,64.6988983154,-110.614997864,,CA,CA-NT,YOA
medium_airport,Old Crow Airport,67.57060241699219,-139.83900451660156,,CA,CA-YT,YOC
medium_airport,CFB Cold Lake,54.40499877929688,-110.27899932861328,,CA,CA-AB,YOD
medium_airport,Oxford House Airport,54.93330001831055,-95.27890014648438,,CA,CA-MB,YOH
medium_airport,High Level Airport,58.62139892578125,-117.16500091552734,,CA,CA-AB,YOJ
medium_airport,Oshawa Airport,43.922798156700004,-78.8949966431,,CA,CA-ON,YOO
medium_airport,Rainbow Lake Airport,58.49140167236328,-119.40799713134766,,CA,CA-AB,YOP
medium_airport,Owen Sound / Billy Bishop Regional Airport,44.5903015137,-80.8375015259,,CA,CA-ON,YOS
large_airport,Ottawa Macdonald-Cartier International Airport,45.3224983215,-75.6691970825,,CA,CA-ON,YOW
heliport,C J.H.L.(Joe) Lecomte) Heliport,46.9021961734,-71.50219917300001,,CA,CA-QC,YOY
medium_airport,Prince Albert Glass Field,53.214199066199996,-105.672996521,,CA,CA-SK,YPA
medium_airport,Paulatuk (Nora Aliqatchialuk Ruben) Airport,69.3608381154,-124.075469971,,CA,CA-NT,YPC
medium_airport,Port Hawkesbury Airport,45.6567001343,-61.3680992126,,CA,CA-NS,YPS
medium_airport,Peace River Airport,56.22689819335938,-117.4469985961914,,CA,CA-AB,YPE
medium_airport,Southport Airport,49.903099060058594,-98.2739028930664,,CA,CA-MB,YPG
medium_airport,Inukjuak Airport,58.471900939941406,-78.07689666748047,,CA,CA-QC,YPH
medium_airport,Pickle Lake Airport,51.4463996887207,-90.21420288085938,,CA,CA-ON,YPL
medium_airport,Pikangikum Airport,51.81969833374024,-93.97329711914062,,CA,CA-ON,YPM
medium_airport,Port Menier Airport,49.83639907836914,-64.28859710693361,,CA,CA-QC,YPN
medium_airport,Peawanuck Airport,54.98809814453125,-85.44329833984375,,CA,CA-ON,YPO
medium_airport,Peterborough Airport,44.22999954223633,-78.36329650878906,,CA,CA-ON,YPQ
medium_airport,Prince Rupert Airport,54.2860984802,-130.445007324,,CA,CA-BC,YPR
medium_airport,Powell River Airport,49.83420181274414,-124.5,,CA,CA-BC,YPW
medium_airport,Puvirnituq Airport,60.05059814453125,-77.28690338134766,,CA,CA-QC,YPX
medium_airport,Fort Chipewyan Airport,58.7672004699707,-111.11699676513672,,CA,CA-AB,YPY
small_airport,Burns Lake Airport,54.3763999939,-125.95099639899999,,CA,CA-BC,YPZ
medium_airport,Muskoka Airport,44.974700927734375,-79.30329895019531,,CA,CA-ON,YQA
large_airport,Quebec Jean Lesage International Airport,46.7910995483,-71.39330291750002,,CA,CA-QC,YQB
medium_airport,The Pas Airport,53.97140121459961,-101.09100341796876,,CA,CA-MB,YQD
medium_airport,Red Deer Regional Airport,52.18220138549805,-113.8939971923828,,CA,CA-AB,YQF
medium_airport,Windsor Airport,42.27560043334961,-82.95559692382812,,CA,CA-ON,YQG
medium_airport,Watson Lake Airport,60.11640167236328,-128.82200622558594,,CA,CA-YT,YQH
medium_airport,Yarmouth Airport,43.82690048217773,-66.08809661865234,,CA,CA-NS,YQI
medium_airport,Kenora Airport,49.78829956054688,-94.36309814453124,,CA,CA-ON,YQK
medium_airport,Lethbridge County Airport,49.6302986145,-112.80000305200001,,CA,CA-AB,YQL
medium_airport,Greater Moncton International Airport,46.11220169067383,-64.67859649658203,,CA,CA-NB,YQM
medium_airport,Nakina Airport,50.18280029296875,-86.69640350341797,,CA,CA-ON,YQN
medium_airport,Comox Airport,49.71080017089844,-124.88700103759766,,CA,CA-BC,YQQ
medium_airport,Regina International Airport,50.43190002441406,-104.66600036621094,,CA,CA-SK,YQR
medium_airport,St Thomas Municipal Airport,42.77000045776367,-81.11080169677734,,CA,CA-ON,YQS
medium_airport,Thunder Bay Airport,48.37189865112305,-89.32389831542969,,CA,CA-ON,YQT
medium_airport,Grande Prairie Airport,55.1796989441,-118.885002136,,CA,CA-AB,YQU
medium_airport,Yorkton Municipal Airport,51.26470184326172,-102.46199798583984,,CA,CA-SK,YQV
medium_airport,North Battleford Airport,52.76919937133789,-108.24400329589844,,CA,CA-SK,YQW
medium_airport,Gander International Airport,48.9369010925293,-54.56809997558594,,CA,CA-NL,YQX
medium_airport,Sydney / J.A. Douglas McCurdy Airport,46.1613998413,-60.047798156700004,,CA,CA-NS,YQY
medium_airport,Quesnel Airport,53.026100158691406,-122.51000213623048,,CA,CA-BC,YQZ
medium_airport,Rae Lakes Airport,64.11609649658203,-117.30999755859376,,CA,CA-NT,YRA
medium_airport,Resolute Bay Airport,74.71690368649999,-94.9693984985,,CA,CA-NU,YRB
medium_airport,Rivière-du-Loup Airport,47.76440048217773,-69.58470153808594,,CA,CA-QC,YRI
medium_airport,Roberval Airport,48.52000045776367,-72.2656021118164,,CA,CA-QC,YRJ
medium_airport,Red Lake Airport,51.06689834594727,-93.79309844970705,,CA,CA-ON,YRL
small_airport,Rocky Mountain House Airport,52.4296989441,-114.903999329,,CA,CA-AB,YRM
medium_airport,Ottawa / Rockcliffe Airport,45.460300445600005,-75.64610290530001,,CA,CA-ON,YRO
medium_airport,Trois-Rivières Airport,46.35279846191406,-72.67939758300781,,CA,CA-QC,YRQ
medium_airport,Red Sucker Lake Airport,54.167198181152344,-93.55719757080078,,CA,CA-MB,YRS
medium_airport,Rankin Inlet Airport,62.811401367200006,-92.1157989502,,CA,CA-NU,YRT
medium_airport,Revelstoke Airport,50.9667015076,-118.18299865700001,,CA,CA-BC,YRV
medium_airport,Sudbury Airport,46.625,-80.79889678955078,,CA,CA-ON,YSB
medium_airport,Sherbrooke Airport,45.4385986328125,-71.69139862060547,,CA,CA-QC,YSC
heliport,Suffield Heliport,50.2667007446289,-111.18299865722656,,CA,CA-AB,YSD
small_airport,Squamish Airport,49.7817001343,-123.16200256299999,,CA,CA-BC,YSE
medium_airport,Stony Rapids Airport,59.25030136108398,-105.84100341796876,,CA,CA-SK,YSF
medium_airport,Smiths Falls-Montague (Russ Beach) Airport,44.94580078125,-75.94059753417969,,CA,CA-ON,YSH
medium_airport,Saint John Airport,45.31610107421875,-65.89029693603516,,CA,CA-NB,YSJ
medium_airport,Sanikiluaq Airport,56.537799835200005,-79.2466964722,,CA,CA-NU,YSK
medium_airport,St Leonard Airport,47.15750122070313,-67.83470153808594,,CA,CA-NB,YSL
medium_airport,Fort Smith Airport,60.020301818847656,-111.96199798583984,,CA,CA-NT,YSM
medium_airport,Niagara District Airport,43.19169998168945,-79.17169952392578,,CA,CA-ON,YCM
medium_airport,Marathon Airport,48.75529861450195,-86.34439849853516,,CA,CA-ON,YSP
medium_airport,St. Theresa Point Airport,53.84560012817383,-94.85189819335938,,CA,CA-MB,YST
medium_airport,Summerside Airport,46.44060134887695,-63.83359909057617,,CA,CA-PE,YSU
medium_airport,Sachs Harbour (David Nasogaluak Jr. Saaryuaq) Airport,71.9938964844,-125.24299621600001,,CA,CA-NT,YSY
medium_airport,Pembroke Airport,45.86439895629883,-77.25170135498047,,CA,CA-ON,YTA
medium_airport,Cape Dorset Airport,64.2300033569,-76.5267028809,,CA,CA-NU,YTE
medium_airport,Alma Airport,48.50889968869999,-71.64189910889998,,CA,CA-QC,YTF
medium_airport,Thompson Airport,55.80110168457031,-97.86419677734376,,CA,CA-MB,YTH
medium_airport,Big Trout Lake Airport,53.81779861450195,-89.89689636230469,,CA,CA-ON,YTL
medium_airport,Tasiujaq Airport,58.66780090332031,-69.95580291748047,,CA,CA-QC,YTQ
medium_airport,CFB Trenton,44.118900299072266,-77.5280990600586,,CA,CA-ON,YTR
medium_airport,Timmins/Victor M. Power,48.569698333699996,-81.376701355,,CA,CA-ON,YTS
medium_airport,Billy Bishop Toronto City Centre Airport,43.6274986267,-79.3962020874,,CA,CA-ON,YTZ
medium_airport,Tuktoyaktuk Airport,69.43329620361328,-133.0260009765625,,CA,CA-NT,YUB
large_airport,Montreal / Pierre Elliott Trudeau International Airport,45.4706001282,-73.7407989502,,CA,CA-QC,YUL
medium_airport,Repulse Bay Airport,66.5214004517,-86.22470092770003,,CA,CA-NU,YUT
medium_airport,Hall Beach Airport,68.77610015869999,-81.2425,,CA,CA-NU,YUX
medium_airport,Rouyn Noranda Airport,48.20610046386719,-78.83560180664062,,CA,CA-QC,YUY
medium_airport,Bonaventure Airport,48.07109832763672,-65.46029663085939,,CA,CA-QC,YVB
medium_airport,La Ronge Airport,55.1514015198,-105.262001038,,CA,CA-SK,YVC
small_airport,Vermilion Airport,53.355800628699996,-110.823997498,,CA,CA-AB,YVG
medium_airport,Vernon Airport,50.24810028076172,-119.33100128173828,,CA,CA-BC,YVE
medium_airport,Qikiqtarjuaq Airport,67.5457992554,-64.03140258789999,,CA,CA-NU,YVM
medium_airport,Val-d'Or Airport,48.0532989502,-77.7827987671,,CA,CA-QC,YVO
medium_airport,Kuujjuaq Airport,58.09609985351562,-68.42690277099611,,CA,CA-QC,YVP
medium_airport,Norman Wells Airport,65.28160095214844,-126.7979965209961,,CA,CA-NT,YVQ
large_airport,Vancouver International Airport,49.193901061999995,-123.183998108,,CA,CA-BC,YVR
small_airport,Buffalo Narrows Airport,55.8418998718,-108.41799926799999,,CA,CA-SK,YVT
medium_airport,Wiarton Airport,44.74580001831055,-81.1072006225586,,CA,CA-ON,YVV
medium_airport,Deer Lake Airport,52.655799865722656,-94.0614013671875,,CA,CA-ON,YVZ
medium_airport,Petawawa Airport,45.95220184326172,-77.31919860839844,,CA,CA-ON,YWA
large_airport,Winnipeg / James Armstrong Richardson International Airport,49.909999847399995,-97.2398986816,,CA,CA-MB,YWG
seaplane_base,Victoria Harbour Seaplane Base,48.4249858939,-123.38886737799999,,CA,CA-BC,YWH
medium_airport,Déline Airport,65.21109771728516,-123.43599700927734,,CA,CA-NT,YWJ
medium_airport,Wabush Airport,52.92190170288086,-66.86440277099611,,CA,CA-NL,YWK
medium_airport,Williams Lake Airport,52.1831016541,-122.054000854,,CA,CA-BC,YWL
medium_airport,Webequie Airport,52.9593933975,-87.37486839290001,,CA,CA-ON,YWP
medium_airport,Wrigley Airport,63.20940017700195,-123.43699645996094,,CA,CA-NT,YWY
medium_airport,Cranbrook Airport,49.610801696777344,-115.78199768066406,,CA,CA-BC,YXC
medium_airport,Saskatoon John G. Diefenbaker International Airport,52.170799255371094,-106.6999969482422,,CA,CA-SK,YXE
medium_airport,Medicine Hat Airport,50.01890182495117,-110.72100067138672,,CA,CA-AB,YXH
medium_airport,Fort St John Airport,56.23809814453125,-120.73999786376952,,CA,CA-BC,YXJ
medium_airport,Rimouski Airport,48.47809982299805,-68.49690246582031,,CA,CA-QC,YXK
medium_airport,Sioux Lookout Airport,50.11389923095703,-91.9052963256836,,CA,CA-ON,YXL
medium_airport,Whale Cove Airport,62.24000167849999,-92.5980987549,,CA,CA-NU,YXN
medium_airport,Pangnirtung Airport,66.1449966431,-65.71360015869999,,CA,CA-NU,YXP
medium_airport,Beaver Creek Airport,62.4103012084961,-140.86700439453125,,CA,CA-YT,YXQ
medium_airport,Earlton (Timiskaming Regional) Airport,47.6974006546,-79.84734535220001,,CA,CA-ON,YXR
medium_airport,Prince George Airport,53.8894004822,-122.679000854,,CA,CA-BC,YXS
medium_airport,Terrace Airport,54.46849822998047,-128.57600402832028,,CA,CA-BC,YXT
large_airport,London Airport,43.0355987549,-81.15390014649999,,CA,CA-ON,YXU
medium_airport,Abbotsford Airport,49.02529907226562,-122.36100006103516,,CA,CA-BC,YXX
medium_airport,Whitehorse / Erik Nielsen International Airport,60.709598541300004,-135.067001343,,CA,CA-YT,YXY
medium_airport,Wawa Airport,47.96670150756836,-84.78669738769531,,CA,CA-ON,YXZ
medium_airport,North Bay Airport,46.36360168457031,-79.42279815673828,,CA,CA-ON,YYB
large_airport,Calgary International Airport,51.113899231000005,-114.019996643,,CA,CA-AB,YYC
medium_airport,Smithers Airport,54.82469940185547,-127.18299865722656,,CA,CA-BC,YYD
medium_airport,Fort Nelson Airport,58.8363990784,-122.59700012200001,,CA,CA-BC,YYE
medium_airport,Penticton Airport,49.46310043334961,-119.60199737548828,,CA,CA-BC,YYF
medium_airport,Charlottetown Airport,46.290000915527344,-63.12110137939453,,CA,CA-PE,YYG
medium_airport,Taloyoak Airport,69.5466995239,-93.57669830319999,,CA,CA-NU,YYH
large_airport,Victoria International Airport,48.646900177,-123.426002502,,CA,CA-BC,YYJ
medium_airport,Lynn Lake Airport,56.86389923095703,-101.07599639892578,,CA,CA-MB,YYL
small_airport,Cowley Airport,49.6363983154,-114.09400177,,CA,CA-AB,YYM
medium_airport,Swift Current Airport,50.291900634799994,-107.691001892,,CA,CA-SK,YYN
medium_airport,Churchill Airport,58.73920059204102,-94.06500244140624,,CA,CA-MB,YYQ
medium_airport,Goose Bay Airport,53.3191986084,-60.425800323500006,,CA,CA-NL,YYR
large_airport,St. John's International Airport,47.618598938000005,-52.751899719200004,,CA,CA-NL,YYT
medium_airport,Kapuskasing Airport,49.41389846801758,-82.46749877929688,,CA,CA-ON,YYU
medium_airport,Armstrong Airport,50.29029846191406,-88.90969848632812,,CA,CA-ON,YYW
medium_airport,Mont Joli Airport,48.60860061645508,-68.20809936523439,,CA,CA-QC,YYY
large_airport,Lester B. Pearson International Airport,43.6772003174,-79.63059997559999,,CA,CA-ON,YYZ
medium_airport,Downsview Airport,43.74250030517578,-79.4655990600586,,CA,CA-ON,YZD
medium_airport,Gore Bay Manitoulin Airport,45.88529968261719,-82.56780242919922,,CA,CA-ON,YZE
medium_airport,Yellowknife Airport,62.46279907226562,-114.44000244140624,,CA,CA-NT,YZF
medium_airport,Salluit Airport,62.17940139770508,-75.66719818115234,,CA,CA-QC,YZG
medium_airport,Slave Lake Airport,55.293098449700004,-114.777000427,,CA,CA-AB,YZH
medium_airport,Sandspit Airport,53.25429916379999,-131.813995361,,CA,CA-BC,YZP
medium_airport,Chris Hadfield Airport,42.9994010925293,-82.30889892578125,,CA,CA-ON,YZR
medium_airport,Coral Harbour Airport,64.1932983398,-83.3593978882,,CA,CA-NU,YZS
medium_airport,Port Hardy Airport,50.68059921264648,-127.36699676513672,,CA,CA-BC,YZT
medium_airport,Whitecourt Airport,54.14390182495117,-115.78700256347656,,CA,CA-AB,YZU
medium_airport,Sept-Îles Airport,50.22330093383789,-66.26560211181639,,CA,CA-QC,YZV
medium_airport,Teslin Airport,60.17279815673828,-132.74299621582028,,CA,CA-YT,YZW
medium_airport,CFB Greenwood,44.98440170288086,-64.91690063476561,,CA,CA-NS,YZX
medium_airport,York Landing Airport,56.08940124511719,-96.08920288085938,,CA,CA-MB,ZAC
medium_airport,Salmon Arm Airport,50.68280029296875,-119.22899627685548,,CA,CA-BC,YSN
medium_airport,Boundary Bay Airport,49.074199676499994,-123.012001038,,CA,CA-BC,YDT
medium_airport,Ilford Airport,56.061401367200006,-95.613899231,,CA,CA-MB,ILF
medium_airport,Bathurst Airport,47.629699707,-65.738899231,,CA,CA-NB,ZBF
medium_airport,Bromont (Roland Desourdy) Airport,45.2907981873,-72.74140167239999,,CA,CA-QC,ZBM
medium_airport,Kelsey Airport,56.0374984741,-96.5096969604,,CA,CA-MB,KES
medium_airport,Eastmain River Airport,52.22639846801758,-78.52249908447266,,CA,CA-QC,ZEM
medium_airport,Faro Airport,62.20750045776367,-133.37600708007812,,CA,CA-YT,ZFA
medium_airport,Fond-Du-Lac Airport,59.33440017700195,-107.18199920654295,,CA,CA-SK,ZFD
medium_airport,Pukatawagan Airport,55.7491989136,-101.26599884,,CA,CA-MB,XPK
medium_airport,Fort Mcpherson Airport,67.40750122070311,-134.86099243164062,,CA,CA-NT,ZFM
medium_airport,Tulita Airport,64.90969848632811,-125.572998046875,,CA,CA-NT,ZFN
medium_airport,Grand Forks Airport,49.01559829711914,-118.43099975585938,,CA,CA-BC,ZGF
medium_airport,Gods River Airport,54.839698791503906,-94.07859802246094,,CA,CA-MB,ZGI
medium_airport,Little Grand Rapids Airport,52.04560089111328,-95.4657974243164,,CA,CA-MB,ZGR
small_airport,High Prairie Airport,55.3936004639,-116.474998474,,CA,CA-AB,ZHP
small_airport,Corazón de Jesús Airport,9.4446,-78.5888,,PA,PA-Q,CZJ
medium_airport,Jenpeg Airport,54.51890182495117,-98.0460968017578,,CA,CA-MB,ZJG
medium_airport,Swan River Airport,52.12060165405274,-101.23600006103516,,CA,CA-MB,ZJN
small_airport,Cascade Locks State Airport,45.6768989563,-121.87899780299999,,US,US-OR,CZK
medium_airport,Kashechewan Airport,52.28250122070313,-81.67780303955078,,CA,CA-ON,ZKE
medium_airport,Thicket Portage Airport,55.31890106201172,-97.70780181884766,,CA,CA-MB,YTD
medium_airport,Muskrat Dam Airport,53.44139862060547,-91.76280212402344,,CA,CA-ON,MSA
small_airport,South Cariboo Region / 108 Mile Airport,51.736099243199995,-121.333000183,,CA,CA-BC,ZMH
medium_airport,Pikwitonei Airport,55.58890151977539,-97.16419982910156,,CA,CA-MB,PIW
medium_airport,Masset Airport,54.02750015258789,-132.125,,CA,CA-BC,ZMT
small_airport,Chisana Airport,62.071201324499995,-142.04800415,,US,US-AK,CZN
medium_airport,Poplar River Airport,52.9965258788,-97.27419376370001,,CA,CA-MB,XPP
small_airport,Chistochina Airport,62.5634994507,-144.66900634799998,,US,US-AK,CZO
medium_airport,Sachigo Lake Airport,53.8911018371582,-92.19640350341795,,CA,CA-ON,ZPB
medium_airport,Pincher Creek Airport,49.520599365200006,-113.997001648,,CA,CA-AB,WPC
small_airport,Pinehouse Lake Airport,55.528099060100004,-106.58200073200001,,CA,CA-SK,ZPO
medium_airport,Round Lake (Weagamow Lake) Airport,52.94359970092773,-91.31279754638672,,CA,CA-ON,ZRJ
medium_airport,Sandy Lake Airport,53.06420135498047,-93.34439849853516,,CA,CA-ON,ZSJ
medium_airport,South Indian Lake Airport,56.7928009033,-98.9072036743,,CA,CA-MB,XSI
medium_airport,Stewart Airport,55.935410448,-129.982434511,,CA,CA-BC,ZST
seaplane_base,Prince Rupert/Seal Cove Seaplane Base,54.33330154418945,-130.28300476074222,,CA,CA-BC,ZSW
small_airport,Bloodvein River Airport,51.784568,-96.692305,,CA,CA-MB,YDV
medium_airport,Shamattawa Airport,55.8656005859375,-92.0813980102539,,CA,CA-MB,ZTM
medium_airport,Ignace Municipal Airport,49.4296989440918,-91.7177963256836,,CA,CA-ON,ZUC
small_airport,Churchill Falls Airport,53.5619010925293,-64.10639953613281,,CA,CA-NL,ZUM
medium_airport,Lac Brochet Airport,58.617500305200004,-101.46900177,,CA,CA-MB,XLB
medium_airport,Wollaston Lake Airport,58.10689926147461,-103.1719970703125,,CA,CA-SK,ZWL
small_airport,Delta Junction Airport,64.0503997803,-145.716995239,,US,US-AK,DJN
small_airport,Mostaganem Airport,35.908798217800005,0.149382993579,AF,DZ,DZ-27,MQV
medium_airport,Blida Airport,36.50360107421875,2.814169883728028,AF,DZ,DZ-09,QLD
medium_airport,Bou Saada Airport,35.33250045776367,4.206389904022217,AF,DZ,DZ-28,BUJ
medium_airport,Soummam Airport,36.712001800500005,5.0699200630200005,AF,DZ,DZ-06,BJA
large_airport,Houari Boumediene Airport,36.691001892089844,3.215409994125366,AF,DZ,DZ-35,ALG
medium_airport,Djanet Inedbirene Airport,24.292800903299998,9.45244026184,AF,DZ,DZ-33,DJG
medium_airport,Boufarik Airport,36.545799255371094,2.876110076904297,AF,DZ,DZ-09,QFD
medium_airport,Illizi Takhamalt Airport,26.7234992981,8.62265014648,AF,DZ,DZ-33,VVZ
medium_airport,Ain Arnat Airport,36.178100585900005,5.32449007034,AF,DZ,DZ-19,QSF
medium_airport,Aguenar – Hadj Bey Akhamok Airport,22.8115005493,5.45107984543,AF,DZ,DZ-11,TMR
medium_airport,Jijel Ferhat Abbas Airport,36.7951011658,5.873610019680001,AF,DZ,DZ-18,GJL
medium_airport,Mecheria Airport,33.535900116,-0.242353007197,AF,DZ,DZ-45,MZW
medium_airport,Relizane Airport,35.752201080322266,0.6262720227241516,AF,DZ,DZ-48,QZN
medium_airport,Annaba Airport,36.82220077514648,7.8091697692871085,AF,DZ,DZ-36,AAE
medium_airport,Mohamed Boudiaf International Airport,36.2760009765625,6.620389938354492,AF,DZ,DZ-25,CZL
small_airport,Oum el Bouaghi airport,35.879699707,7.270800113679999,AF,DZ,DZ-04,QMH
medium_airport,Cheikh Larbi Tébessi Airport,35.4315986633,8.120719909670001,AF,DZ,DZ-12,TEE
medium_airport,Batna Airport,35.7521018982,6.308589935300001,AF,DZ,DZ-05,BLJ
small_airport,Daup Airport,-4.7403,145.9515,OC,PG,PG-MPM,DAF
medium_airport,Hassi R'Mel Airport,32.93040084838867,3.311539888381958,AF,DZ,DZ-03,HRM
small_airport,Tsletsi Airport,34.6657,3.3510000000000004,AF,DZ,DZ-17,QDJ
small_airport,Dabo Airport,-8.431944444440001,147.843055556,OC,PG,PG-NPP,DAO
medium_airport,Bou Chekif Airport,35.3410987854,1.4631500244100002,AF,DZ,DZ-14,TID
medium_airport,Tindouf Airport,27.700399398800002,-8.167099952700001,AF,DZ,DZ-37,TIN
medium_airport,Ech Cheliff Airport,36.212699890100005,1.33176994324,AF,DZ,DZ-02,CFK
medium_airport,Tafaraoui Airport,35.54240036010742,-0.5322780013084412,AF,DZ,DZ-31,TAF
medium_airport,Zenata – Messali El Hadj Airport,35.0167007446,-1.4500000476800001,AF,DZ,DZ-13,TLM
medium_airport,Es Senia Airport,35.6239013672,-0.6211829781529999,AF,DZ,DZ-31,ORN
medium_airport,Béchar Boudghene Ben Ali Lotfi Airport,31.645700454711914,-2.269860029220581,AF,DZ,DZ-08,CBH
small_airport,Sidi Bel Abbes Airport,35.1717987061,-0.593275010586,AF,DZ,DZ-22,BFW
medium_airport,Ghriss Airport,35.207698822021484,0.14714199304580688,AF,DZ,DZ-29,MUW
small_airport,El Bayadh Airport,33.7216666667,1.0925,AF,DZ,DZ-32,EBH
small_airport,In Guezzam Airport,19.566999435424805,5.75,AF,DZ,DZ-11,INF
small_airport,Bordj Badji Mokhtar Airport,21.375,0.923888981342,AF,DZ,DZ-01,BMW
medium_airport,Touat Cheikh Sidi Mohamed Belkebir Airport,27.83760070800781,-0.1864140033721924,AF,DZ,DZ-01,AZR
medium_airport,Biskra Airport,34.793300628699996,5.73823022842,AF,DZ,DZ-07,BSK
medium_airport,El Golea Airport,30.5713005065918,2.8595900535583496,AF,DZ,DZ-47,ELG
medium_airport,Noumérat - Moufdi Zakaria Airport,32.38410186767578,3.7941100597381587,AF,DZ,DZ-47,GHA
medium_airport,Oued Irara Airport,31.673000335700003,6.140439987180001,AF,DZ,DZ-30,HME
medium_airport,In Salah Airport,27.2509994507,2.51202011108,AF,DZ,DZ-11,INZ
medium_airport,Touggourt Sidi Madhi Airport,33.067798614501946,6.088669776916504,AF,DZ,DZ-30,TGR
medium_airport,Laghouat Airport,33.764400482199996,2.92833995819,AF,DZ,DZ-03,LOO
medium_airport,Guemar Airport,33.5113983154,6.776790142059999,AF,DZ,DZ-39,ELU
medium_airport,Timimoun Airport,29.237100601199998,0.276033014059,AF,DZ,DZ-01,TMX
medium_airport,Ain el Beida Airport,31.917200088500977,5.412779808044434,AF,DZ,DZ-30,OGX
medium_airport,In Aménas Airport,28.0515003204,9.64291000366,AF,DZ,DZ-33,IAM
medium_airport,Cadjehoun Airport,6.357230186462402,2.384350061416626,AF,BJ,BJ-AQ,COO
small_airport,Djougou Airport,9.69208333333,1.63777777778,AF,BJ,BJ-DO,DJA
small_airport,Kandi Airport,11.133000373840332,2.933000087738037,AF,BJ,BJ-AL,KDC
small_airport,Natitingou Airport,10.31700038909912,1.3830000162124634,AF,BJ,BJ-AK,NAE
small_airport,Parakou Airport,9.35768985748291,2.609679937362671,AF,BJ,BJ-BO,PKO
small_airport,Savé Airport,8.018170356750487,2.4645800590515137,AF,BJ,BJ-CO,SVF
small_airport,Debepare Airport,-6.308611111109999,141.905555556,OC,PG,PG-WPD,DBP
seaplane_base,Dambulu Oya Tank Seaplane Base,7.8604,80.6304,AS,LK,LK-2,DBU
seaplane_base,Dubai Creek SPB,25.2422222222,55.3313888889,AS,AE,AE-DU,DCG
small_airport,Dahl Creek Airport,66.9432983398,-156.904998779,,US,US-AK,DCK
small_airport,Decatur HI-Way Airfield,40.837548,-84.862464,,US,US-IN,DCR
small_airport,Dodoima Airport,-8.17736111111,147.809444444,OC,PG,PG-NPP,DDM
small_airport,Derim Airport,-6.14472222222,147.10722222200002,OC,PG,PG-MPL,DER
small_airport,Kaya Airport,13.06700038909912,-1.100000023841858,AF,BF,BF-SMT,XKY
small_airport,Ouahigouya Airport,13.56700038909912,-2.4170000553131104,AF,BF,BF-YAT,OUG
small_airport,Djibo Airport,14.100000381469727,-1.6330000162124634,AF,BF,BF-SOM,XDJ
small_airport,Leo Airport,11.100000381469727,-2.0999999046325684,AF,BF,BF-SIS,XLU
small_airport,Po Airport,11.149999618530273,-1.149999976158142,AF,BF,BF-NAO,PUP
small_airport,Boulsa Airport,12.649999618530273,-0.5669999718666077,AF,BF,BF-NAM,XBO
small_airport,Bogande Airport,12.982999801635742,-0.16699999570846558,AF,BF,BF-GNA,XBG
small_airport,Diapaga Airport,12.050000190734865,1.7829999923706057,AF,BF,BF-TAP,DIP
small_airport,Dori Airport,14.032999992370605,-0.032999999821186066,AF,BF,BF-SEN,DOR
small_airport,Fada N'gourma Airport,12.032999992370605,0.3499999940395355,AF,BF,BF-GOU,FNG
small_airport,Gorom-Gorom Airport,14.449999809265135,-0.2329999953508377,AF,BF,BF-OUD,XGG
small_airport,Kantchari Airport,12.467000007629395,1.5,AF,BF,BF-TAP,XKA
small_airport,Tambao Airport,14.800000190734865,0.05000000074505806,AF,BF,BF-OUD,TMQ
small_airport,Pama Airport,11.25,0.699999988079071,AF,BF,BF-KMP,XPA
small_airport,Arly Airport,11.597000122070312,1.4830000400543213,AF,BF,BF-TAP,ARL
small_airport,Sebba Airport,13.449999809265135,0.5170000195503235,AF,BF,BF-SEN,XSE
small_airport,Tenkodogo Airport,11.800000190734865,-0.367000013589859,AF,BF,BF-BLG,TEG
small_airport,Zabré Airport,11.166999816894533,-0.6169999837875366,AF,BF,BF-BLG,XZA
medium_airport,Ouagadougou Airport,12.35319995880127,-1.5124200582504272,AF,BF,BF-KAD,OUA
small_airport,Banfora Airport,10.68299961090088,-4.7170000076293945,AF,BF,BF-COM,BNR
small_airport,Dedougou Airport,12.458999633789062,-3.490000009536743,AF,BF,BF-MOU,DGU
small_airport,Gaoua Airport,10.299200057983398,-3.2508299350738525,AF,BF,BF-PON,XGA
small_airport,Nouna Airport,12.75,-3.867000103,AF,BF,BF-KOS,XNU
medium_airport,Bobo Dioulasso Airport,11.160099983215332,-4.33096981048584,AF,BF,BF-HOU,BOY
small_airport,Tougan Airport,13.06700038909912,-3.066999912261963,AF,BF,BF-SOR,TUQ
small_airport,Diebougou Airport,10.949999809265137,-3.25,AF,BF,BF-BGR,XDE
small_airport,Aribinda Airport,14.2170000076,-0.883000016212,AF,BF,BF-SOM,XAR
large_airport,Kotoka International Airport,5.605189800262451,-0.16678600013256073,AF,GH,GH-AA,ACC
medium_airport,Tamale Airport,9.55718994140625,-0.8632140159606934,AF,GH,GH-NP,TML
medium_airport,Kumasi Airport,6.714560031890869,-1.5908199548721311,AF,GH,GH-AH,KMS
medium_airport,Sunyani Airport,7.361830234527588,-2.3287599086761475,AF,GH,GH-BA,NYI
medium_airport,Takoradi Airport,4.896059989929199,-1.7747600078582764,AF,GH,GH-WP,TKD
seaplane_base,Deer Harbor SPB,48.6166666667,-123.002777778,,US,US-WA,DHB
medium_airport,Port Bouet Airport,5.261390209197998,-3.9262900352478023,AF,CI,CI-01,ABJ
small_airport,Abengourou Airport,6.715559959411621,-3.4702799320220947,AF,CI,CI-05,OGO
small_airport,Boundiali Airport,9.532999992370604,-6.4670000076293945,AF,CI,CI-03,BXI
medium_airport,Bouaké Airport,7.738800048828125,-5.073669910430908,AF,CI,CI-04,BYK
small_airport,Bouna Airport,9.27750015258789,-3.025279998779297,AF,CI,CI-08,BQO
small_airport,Soko Airport,8.017219543457031,-2.7619400024414062,AF,CI,CI-08,BDK
small_airport,Dimbokro Airport,6.651669979095459,-4.6405601501464835,AF,CI,CI-11,DIM
medium_airport,Daloa Airport,6.7928099632263175,-6.473189830780028,AF,CI,CI-02,DJO
small_airport,Ferkessedougou Airport,9.6,-5.1833333,AF,CI,CI-03,FEK
small_airport,Gagnoa Airport,6.132999897003174,-5.949999809265138,AF,CI,CI-02,GGN
small_airport,Guiglo Airport,6.5249900817871085,-7.478610038757324,AF,CI,CI-19,GGO
small_airport,Nero-Mer Airport,4.64341306686,-6.923961639400001,AF,CI,CI-09,BBV
medium_airport,Korhogo Airport,9.38718032837,-5.556660175319999,AF,CI,CI-03,HGO
medium_airport,Man Airport,7.2720699310302725,-7.58735990524292,AF,CI,CI-06,MJC
small_airport,Odienne Airport,9.5,-7.566999912261963,AF,CI,CI-10,KEO
small_airport,Ouango Fitini Airport,9.600000381469727,-4.050000190734863,AF,CI,CI-08,OFI
small_airport,Seguela Airport,7.968329906463622,-6.710830211639403,AF,CI,CI-14,SEO
medium_airport,San Pedro Airport,4.746719837188722,-6.660820007324219,AF,CI,CI-09,SPY
small_airport,Sassandra Airport,4.928329944610597,-6.132780075073242,AF,CI,CI-09,ZSS
small_airport,Tabou Airport,4.437809467315674,-7.3627281188964835,AF,CI,CI-09,TXU
medium_airport,Yamoussoukro Airport,6.9031701088,-5.36558008194,AF,CI,CI-07,ASK
small_airport,Katsina Airport,13.007800102200001,7.660449981689999,AF,NG,NG-KT,DKA
large_airport,Nnamdi Azikiwe International Airport,9.006790161132812,7.263169765472412,AF,NG,NG-FC,ABV
large_airport,Akwa Ibom International Airport,4.8725,8.093,AF,NG,NG-AK,QUO
medium_airport,Akure Airport,7.246739864349365,5.3010101318359375,AF,NG,NG-ON,AKR
medium_airport,Asaba International Airport,6.203333333330001,6.658888888890001,AF,NG,NG-DE,ABB
medium_airport,Benin Airport,6.3169798851013175,5.599500179290772,AF,NG,NG-ED,BNI
medium_airport,Margaret Ekpo International Airport,4.976019859313965,8.347200393676758,AF,NG,NG-CR,CBQ
medium_airport,Akanu Ibiam International Airport,6.4742698669433585,7.561960220336914,AF,NG,NG-EN,ENU
medium_airport,Gusau Airport,12.17169952392578,6.6961097717285165,AF,NG,NG-ZA,QUS
medium_airport,Ibadan Airport,7.362460136413574,3.97832989692688,AF,NG,NG-OY,IBA
medium_airport,Ilorin International Airport,8.440210342407228,4.493919849395752,AF,NG,NG-KW,ILR
medium_airport,Sam Mbakwe International Airport,5.427060127258301,7.2060298919677725,AF,NG,NG-IM,QOW
medium_airport,Yakubu Gowon Airport,9.639829635620117,8.869050025939941,AF,NG,NG-PL,JOS
medium_airport,Kaduna Airport,10.696000099182127,7.320109844207764,AF,NG,NG-KD,KAD
medium_airport,Mallam Aminu International Airport,12.047599792480467,8.524620056152344,AF,NG,NG-KN,KAN
medium_airport,Maiduguri International Airport,11.855299949645994,13.080900192260742,AF,NG,NG-BO,MIU
medium_airport,Makurdi Airport,7.7038798332214355,8.613940238952638,AF,NG,NG-BE,MDI
large_airport,Murtala Muhammed International Airport,6.5773701667785645,3.321160078048706,AF,NG,NG-LA,LOS
medium_airport,Minna Airport,9.652170181274414,6.462259769439697,AF,NG,NG-NI,MXJ
medium_airport,Port Harcourt International Airport,5.0154900550842285,6.94959020614624,AF,NG,NG-RI,PHC
medium_airport,Sadiq Abubakar III International Airport,12.916299819946287,5.207190036773682,AF,NG,NG-SO,SKO
medium_airport,Yola Airport,9.257550239562988,12.430399894714355,AF,NG,NG-AD,YOL
medium_airport,Zaria Airport,11.130200386047363,7.685810089111327,AF,NG,NG-KD,ZAR
small_airport,Dorobisoro Airport,-9.461855,147.920907,OC,PG,PG-CPM,DOO
small_airport,Saertu Airport,46.7463888889,125.14055555600001,AS,CN,CN-23,DQA
medium_airport,Maradi Airport,13.5024995803833,7.1267499923706055,AF,NE,NE-4,MFQ
medium_airport,Diori Hamani International Airport,13.481499671936035,2.1836099624633794,AF,NE,NE-8,NIM
medium_airport,Tahoua Airport,14.875699996948242,5.265359878540039,AF,NE,NE-5,THZ
medium_airport,Mano Dayak International Airport,16.965999603271484,8.000109672546388,AF,NE,NE-1,AJY
small_airport,Arlit Airport,18.7903995514,7.36595010757,AF,NE,NE-1,RLT
medium_airport,Zinder Airport,13.779000282287598,8.983759880065918,AF,NE,NE-7,ZND
small_airport,Dilasag Airport,16.445833333299998,122.206805556,AS,PH,PH-AUR,DSG
medium_airport,Tabarka 7 Novembre Airport,36.97999954223633,8.87693977355957,AF,TN,TN-32,TBJ
medium_airport,Monastir Habib Bourguiba International Airport,35.75809860229492,10.75469970703125,AF,TN,TN-52,MIR
large_airport,Tunis Carthage International Airport,36.85100173950195,10.22719955444336,AF,TN,TN-11,TUN
medium_airport,Sidi Ahmed Air Base,37.2453994751,9.791449546810002,AF,TN,TN-23,QIZ
medium_airport,Gafsa Ksar International Airport,34.42200088500977,8.822500228881836,AF,TN,TN-71,GAF
medium_airport,Gabès Matmata International Airport,33.87689971923828,10.103300094604492,AF,TN,TN-81,GAE
medium_airport,Djerba Zarzis International Airport,33.875,10.775500297546387,AF,TN,TN-82,DJE
medium_airport,El Borma Airport,31.70429992675781,9.254619598388672,AF,TN,TN-83,EBM
medium_airport,Sfax Thyna International Airport,34.71799850463867,10.690999984741213,AF,TN,TN-61,SFA
medium_airport,Tozeur Nefta International Airport,33.939701080322266,8.110560417175293,AF,TN,TN-72,TOE
small_airport,Dywer Airbase,31.0,64.0,AS,AF,AF-HEL,DWR
medium_airport,Niamtougou International Airport,9.767330169677734,1.0912499427795408,AF,TG,TG-K,LRL
medium_airport,Lomé-Tokoin Airport,6.165609836578369,1.2545100450515747,AF,TG,TG-M,LFW
small_airport,Elenak Airport,9.319305555560002,166.847777778,OC,MH,MH-KWA,EAL
small_airport,Arlon-Sterpenich ULM,49.662799835200005,5.886940002439999,EU,BE,BE-WLX,QON
medium_airport,Antwerp International Airport (Deurne),51.189399719200004,4.46027994156,EU,BE,BE-VAN,ANR
large_airport,Brussels Airport,50.9014015198,4.48443984985,EU,BE,BE-BRU,BRU
large_airport,Brussels South Charleroi Airport,50.4592018127,4.453820228580001,EU,BE,BE-WHT,CRL
medium_airport,Wevelgem Airport,50.817199707,3.2047200202900004,EU,BE,BE-VWV,KJK
large_airport,Liège Airport,50.63740158081055,5.443220138549805,EU,BE,BE-WLG,LGG
small_airport,Suarlée Airport,50.4879989624,4.76891994476,EU,BE,BE-WNA,QNM
small_airport,Ebon Airport,4.5982,168.752,OC,MH,MH-EBO,EBO
medium_airport,Ostend-Bruges International Airport,51.1988983154,2.8622200489,EU,BE,BE-VWV,OST
small_airport,Tournai/Maubray Airport,50.5297012329,3.4945499897000003,EU,BE,BE-WHT,ZGQ
small_airport,Kiewit Airfield Hasselt,50.9700012207,5.375070095060001,EU,BE,BE-VLI,QHA
small_airport,Oostmalle Air Base,51.26470184326172,4.7533302307128915,EU,BE,BE-VAN,OBL
small_airport,Méndez Airport,-2.7333300113677983,-78.31670379638672,SA,EC,EC-S,MZD
medium_airport,Altenburg-Nobitz Airport,50.9819450378418,12.506388664245605,EU,DE,DE-TH,AOC
medium_airport,Heringsdorf Airport,53.8787002563,14.152299881,EU,DE,DE-MV,HDF
small_airport,Riesa-Göhlis Airport,51.293609619099996,13.3561105728,EU,DE,DE-SN,IES
small_airport,Rechlin-Lärz Airport,53.306388855,12.7522220612,EU,DE,DE-MV,REB
small_airport,Schönhagen Airport,52.2036094666,13.1563892365,EU,DE,DE-BR,QXH
small_airport,Cochstedt Airport,51.8563995361,11.42029953,EU,DE,DE-ST,CSO
small_airport,Barth Airport,54.3375015258789,12.699700355529785,EU,DE,DE-MV,BBH
medium_airport,Magdeburg Airport,52.073612213100006,11.6263885498,EU,DE,DE-ST,ZMG
medium_airport,Cottbus-Drewitz Airport,51.889442443847656,14.531944274902346,EU,DE,DE-BR,CBU
small_airport,Rügen Airport,54.3833312988,13.3255558014,EU,DE,DE-MV,GTI
small_airport,Köthen Airport,51.721111297600004,11.9527778625,EU,DE,DE-ST,KOQ
small_airport,Peenemünde Airport,54.1577796936,13.774443626399998,EU,DE,DE-MV,PEF
large_airport,Berlin-Schönefeld International Airport,52.38000106811523,13.522500038146973,EU,DE,DE-BR,SXF
large_airport,Dresden Airport,51.1328010559082,13.767200469970705,EU,DE,DE-SN,DRS
medium_airport,Erfurt Airport,50.97980117797852,10.958100318908693,EU,DE,DE-TH,ERF
large_airport,Frankfurt am Main International Airport,50.0264015198,8.54312992096,EU,DE,DE-HE,FRA
large_airport,Münster Osnabrück Airport,52.134601593,7.68483018875,EU,DE,DE-NW,FMO
large_airport,Hamburg Airport,53.63040161132813,9.988229751586914,EU,DE,DE-HH,HAM
large_airport,Cologne Bonn Airport,50.865898132299996,7.1427397728,EU,DE,DE-NW,CGN
large_airport,Düsseldorf International Airport,51.28950119018555,6.766779899597168,EU,DE,DE-NW,DUS
large_airport,Munich International Airport,48.35380172729492,11.786100387573242,EU,DE,DE-BY,MUC
large_airport,Nuremberg Airport,49.4986991882,11.0669002533,EU,DE,DE-BY,NUE
large_airport,Leipzig Halle Airport,51.43239974975586,12.241600036621096,EU,DE,DE-SN,LEJ
medium_airport,Saarbrücken Airport,49.2145996094,7.10950994492,EU,DE,DE-SL,SCN
large_airport,Stuttgart Airport,48.6898994446,9.22196006775,EU,DE,DE-BW,STR
large_airport,Berlin-Tegel International Airport,52.559700012200004,13.287699699400001,EU,DE,DE-BE,TXL
large_airport,Hannover Airport,52.461101532,9.68507957458,EU,DE,DE-NI,HAJ
large_airport,Bremen Airport,53.0475006104,8.78666973114,EU,DE,DE-HB,BRE
medium_airport,Frankfurt-Egelsbach Airport,49.959999084472656,8.645833015441895,EU,DE,DE-HE,QEF
medium_airport,Frankfurt-Hahn Airport,49.948699951200005,7.263889789579999,EU,DE,DE-RP,HHN
medium_airport,Mannheim-City Airport,49.47305679321289,8.514166831970215,EU,DE,DE-BW,MHG
medium_airport,Mainz-Finthen Airport,49.96749877929688,8.147221565246582,EU,DE,DE-RP,QMZ
medium_airport,Eisenach-Kindel Airport,50.9927787781,10.4727783203,EU,DE,DE-TH,EIB
medium_airport,Siegerland Airport,50.70769882202149,8.082969665527344,EU,DE,DE-NW,SGE
medium_airport,Hamburg-Finkenwerder Airport,53.5352783203125,9.835556030273438,EU,DE,DE-HH,XFW
medium_airport,Kiel-Holtenau Airport,54.37944412231445,10.145277976989746,EU,DE,DE-SH,KEL
medium_airport,Lübeck Blankensee Airport,53.805400848400005,10.7192001343,EU,DE,DE-SH,LBC
small_airport,Neumünster Airport,54.079444885253906,9.941389083862305,EU,DE,DE-SH,EUM
medium_airport,Memmingen Allgau Airport,47.9888000488,10.2395000458,EU,DE,DE-BY,FMM
small_airport,Aachen-Merzbrück Airport,50.82305526733398,6.186388969421388,EU,DE,DE-NW,AAH
small_airport,Bonn-Hangelar Airport,50.768890380900004,7.16333293915,EU,DE,DE-NW,BNJ
small_airport,Essen Mulheim Airport,51.40230178833008,6.9373297691345215,EU,DE,DE-NW,ESS
small_airport,Bielefeld Airport,51.964721679700006,8.544444084170001,EU,DE,DE-NW,BFE
small_airport,Marl-Loemühle Airport,51.647201538100006,7.16333007812,EU,DE,DE-NW,ZOJ
medium_airport,Mönchengladbach Airport,51.23027801513672,6.504444122314452,EU,DE,DE-NW,MGL
medium_airport,Paderborn Lippstadt Airport,51.614101409899995,8.616319656369999,EU,DE,DE-NW,PAD
medium_airport,Niederrhein Airport,51.6024017334,6.14216995239,EU,DE,DE-NW,NRN
large_airport,Dortmund Airport,51.518299102799986,7.61223983765,EU,DE,DE-NW,DTM
medium_airport,Augsburg Airport,48.42527770996094,10.93166732788086,EU,DE,DE-BY,AGB
medium_airport,Oberpfaffenhofen Airport,48.08140182495117,11.283100128173828,EU,DE,DE-BY,OBF
small_airport,Straubing Airport,48.90083312988281,12.516667366027832,EU,DE,DE-BY,RBM
medium_airport,Friedrichshafen Airport,47.671298980699994,9.511489868160002,EU,DE,DE-BW,FDH
small_airport,Oschersleben Airport,52.03805541992188,11.20555591583252,EU,DE,DE-ST,FRF
medium_airport,Schwerin Parchim Airport,53.42699813842773,11.78339958190918,EU,DE,DE-MV,SZW
medium_airport,Bayreuth Airport,49.98500061035156,11.640000343322756,EU,DE,DE-BY,BYU
small_airport,Burg Feuerstein Airport,49.794166564940994,11.133610725402999,EU,DE,DE-BY,URD
small_airport,Ansbach-Petersdorf Airport,49.36111068725586,10.66944408416748,EU,DE,DE-BY,QOB
small_airport,Giebelstadt Airport,49.6480560303,9.966388702390002,EU,DE,DE-BY,GHF
medium_airport,Hof-Plauen Airport,50.288612365722656,11.856389045715332,EU,DE,DE-BY,HOQ
small_airport,Bitburg Airport,49.94527816772461,6.565000057220459,EU,DE,DE-RP,BBJ
small_airport,Zweibrücken Airport,49.20940017700195,7.400559902191162,EU,DE,DE-RP,ZQW
large_airport,Karlsruhe Baden-Baden Airport,48.7793998718,8.08049964905,EU,DE,DE-BW,FKB
medium_airport,Donaueschingen-Villingen Airport,47.97333145139999,8.52222156525,EU,DE,DE-BW,ZQL
medium_airport,Lahr Airport,48.36930084229999,7.82772016525,EU,DE,DE-BW,LHA
medium_airport,Braunschweig Wolfsburg Airport,52.31919860839844,10.556099891662598,EU,DE,DE-NI,BWE
medium_airport,Kassel-Calden Airport,51.40833282470703,9.3774995803833,EU,DE,DE-HE,KSF
small_airport,Bremerhaven Airport,53.50694274902344,8.57277774810791,EU,DE,DE-HB,BRV
small_airport,Lemwerder Airport,53.14469909667969,8.62444019317627,EU,DE,DE-HB,XLW
small_airport,Emden Airport,53.39110946655274,7.227499961853027,EU,DE,DE-NI,EME
small_airport,Wangerooge Airport,53.78277969360352,7.913888931274414,EU,DE,DE-NI,AGE
small_airport,Wilhelmshaven-Mariensiel Airport,53.502220153808594,8.05222225189209,EU,DE,DE-NI,WVN
small_airport,Juist Airport,53.68111038208008,7.055832862854004,EU,DE,DE-NI,JUI
small_airport,Langeoog Airport,53.74250030517578,7.4977779388427725,EU,DE,DE-NI,LGO
small_airport,Nordhorn-Lingen Airport,52.45750045776367,7.18222188949585,EU,DE,DE-NI,ZOW
small_airport,Borkum Airport,53.596389770500004,6.70916700363,EU,DE,DE-NI,BMK
small_airport,Norden-Norddeich Airport,53.6330566406,7.190278053280001,EU,DE,DE-NI,NOD
small_airport,Varrelbusch Airport,52.90833282470703,8.040555953979492,EU,DE,DE-NI,VAC
small_airport,Norderney Airport,53.70694351196289,7.230000019073486,EU,DE,DE-NI,NRD
small_airport,Baltrum Airport,53.72472381591797,7.373332977294923,EU,DE,DE-NI,BMR
small_airport,Heide-Büsum Airport,54.1533317566,8.90166664124,EU,DE,DE-SH,HEI
small_airport,Flensburg-Schäferhaus Airport,54.77333450317383,9.378889083862305,EU,DE,DE-SH,FLF
small_airport,Helgoland-Düne Airport,54.1852798462,7.91583299637,EU,DE,DE-SH,HGL
small_airport,Husum-Schwesing Airport,54.5099983215,9.138333320620001,EU,DE,DE-SH,QHU
small_airport,Nordholz-Spieka Airport,53.7672233582,8.64361095428,EU,DE,DE-NI,NDZ
small_airport,St. Peter-Ording Airport,54.30888748168945,8.686944007873535,EU,DE,DE-SH,PSH
medium_airport,Westerland Sylt Airport,54.9132003784,8.34047031403,EU,DE,DE-SH,GWT
small_airport,Wyk auf Föhr Airport,54.68444442749024,8.528332710266112,EU,DE,DE-SH,OHR
medium_airport,Kärdla Airport,58.99079895019531,22.830699920654297,EU,EE,EE-39,KDL
medium_airport,Kuressaare Airport,58.22990036010742,22.50950050354004,EU,EE,EE-74,URE
medium_airport,Pärnu Airport,58.41899871826172,24.47279930114746,EU,EE,EE-67,EPU
large_airport,Lennart Meri Tallinn Airport,59.41329956049999,24.8327999115,EU,EE,EE-37,TLL
medium_airport,Tartu Airport,58.30749893189999,26.6903991699,EU,EE,EE-7B,TAY
medium_airport,Enontekio Airport,68.36260223388672,23.424299240112305,EU,FI,FI-LL,ENF
small_airport,Forssa Airport,60.80189895629883,23.64559936523437,EU,FI,FI-ES,QVE
small_airport,Efogi Airport,-9.153805555560002,147.659805556,OC,PG,PG-CPM,EFG
medium_airport,Halli Airport,61.85599899291992,24.78660011291504,EU,FI,FI-LS,KEV
medium_airport,Helsinki Malmi Airport,60.254600524902344,25.04280090332031,EU,FI,FI-ES,HEM
large_airport,Helsinki Vantaa Airport,60.31719970703125,24.96330070495605,EU,FI,FI-ES,HEL
small_airport,Hyvinkää Airfield,60.6543998718,24.881099700900002,EU,FI,FI-ES,HYV
medium_airport,Kitee Airport,62.166099548339844,30.07360076904297,EU,FI,FI-IS,KTQ
medium_airport,Ivalo Airport,68.6072998046875,27.40530014038086,EU,FI,FI-LL,IVL
medium_airport,Joensuu Airport,62.66289901733398,29.607500076293945,EU,FI,FI-IS,JOE
medium_airport,Jyvaskyla Airport,62.39950180053711,25.678300857543945,EU,FI,FI-LS,JYV
medium_airport,Kauhava Airport,63.12710189819336,23.05139923095703,EU,FI,FI-LS,KAU
medium_airport,Kemi-Tornio Airport,65.77870178222656,24.58209991455078,EU,FI,FI-LL,KEM
medium_airport,Kajaani Airport,64.28549957275389,27.69239997863769,EU,FI,FI-OL,KAJ
medium_airport,Kauhajoki Airport,62.4625015259,22.3931007385,EU,FI,FI-LS,KHJ
medium_airport,Kruunupyy Airport,63.72119903564453,23.14310073852539,EU,FI,FI-LS,KOK
medium_airport,Kuusamo Airport,65.98760223388672,29.23940086364746,EU,FI,FI-OL,KAO
medium_airport,Kittila Airport,67.70099639892578,24.84679985046387,EU,FI,FI-LL,KTT
medium_airport,Kuopio Airport,63.00709915161133,27.797800064086914,EU,FI,FI-IS,KUO
small_airport,Lahti Vesivehmaa Airport,61.14419937133789,25.693500518798828,EU,FI,FI-ES,QLF
medium_airport,Lappeenranta Airport,61.04460144042969,28.144399642944336,EU,FI,FI-ES,LPP
medium_airport,Mariehamn Airport,60.12220001220703,19.8981990814209,EU,FI,FI-AL,MHQ
medium_airport,Mikkeli Airport,61.68659973144531,27.201799392700195,EU,FI,FI-IS,MIK
medium_airport,Oulu Airport,64.93009948730469,25.35460090637207,EU,FI,FI-OL,OUL
medium_airport,Pori Airport,61.46170043945313,21.799999237060547,EU,FI,FI-LS,POR
medium_airport,Rovaniemi Airport,66.56479644775389,25.830400466918945,EU,FI,FI-LL,RVN
medium_airport,Savonlinna Airport,61.94309997558594,28.94510078430176,EU,FI,FI-IS,SVL
medium_airport,Seinäjoki Airport,62.692100524902344,22.83230018615723,EU,FI,FI-LS,SJY
medium_airport,Sodankyla Airport,67.3949966431,26.619100570700002,EU,FI,FI-LL,SOT
medium_airport,Tampere-Pirkkala Airport,61.414100646972656,23.604400634765625,EU,FI,FI-LS,TMP
medium_airport,Turku Airport,60.51409912109375,22.262800216674805,EU,FI,FI-LS,TKU
medium_airport,Utti Air Base,60.896400451660156,26.93840026855469,EU,FI,FI-ES,UTI
medium_airport,Vaasa Airport,63.05070114135742,21.76219940185547,EU,FI,FI-LS,VAA
